State,District,Latitude,Longitude,District code,Population,Male,Female,Literate,Workers,Hindus,Muslims,Christians,Sikhs,Buddhists,Jains,Male Workers,Female Workers,Non Workers,Agricultural Workers,Household Workers,Rural Households,Urban Households,Households,LPG or PNG Households,Housholds with Electric Lighting,Households with Internet,Households with Computer,Primary Education,Secondary Education,Higher Education,Graduate Education,Households with Car Jeep Van,Ownership Owned Households,Ownership Rented Households,Sex ratio,Literacy_rate
Andhra Pradesh,Adilabad,19.284513950073435,78.81321233480176,532,2741239,1369597,1371642,1483347,1323667,2399901,275970,15422,1377,25510,617,748939,574728,1417572,484912,84661,597466,220248,817714,194954,566108,5512,45202,344167,225957,143143,100226,8338,559211,77594,100.0,54.0
Andhra Pradesh,Anantapur,14.312065561843148,77.4601584478577,553,4081148,2064495,2016653,2310960,2036166,3599372,443456,20463,932,341,1417,1208544,827622,2044982,879537,105343,902997,341431,1244428,223016,897970,8606,48299,720357,331793,162175,144915,9915,779195,172680,98.0,57.0
Andhra Pradesh,Chittoor,13.33109263067696,78.92763898886037,554,4174064,2090204,2083860,2667878,1933357,3737588,397870,24129,867,253,1322,1202223,731134,2240707,748093,57269,907970,395900,1303870,324406,944555,13763,67087,770836,548336,265199,246409,16296,815953,196720,100.0,64.0
Andhra Pradesh,East Godavari,16.782718320784902,82.2432074720511,545,5154296,2569688,2584608,3288577,2093681,4983330,77777,77825,738,413,4149,1545831,547850,3060615,1122046,57853,1199479,406362,1605841,479914,1297273,22411,93784,947606,521562,271809,263023,25381,1088823,278383,101.0,64.0
Andhra Pradesh,Guntur,15.884925767634847,80.58657614107885,548,4887813,2440521,2447292,2960441,2381624,4217597,559770,89763,764,323,3282,1442370,939254,2506189,1227956,47436,1069877,513113,1582990,648568,1186028,19383,80434,845810,453446,246580,221924,17424,981115,276073,100.0,61.0
Andhra Pradesh,Hyderabad,17.38971555555556,78.46668888888888,536,3943323,2018575,1924748,2892155,1413297,2046051,1713405,87522,11446,1268,19560,1045585,367712,2530026,23029,46157,0,1066289,1066289,581509,869721,149034,274653,596591,811501,517425,558090,124106,437146,422826,95.0,73.0
Andhra Pradesh,Karimnagar,18.515483193277312,79.43765428571413,534,3776269,1880800,1895469,2206829,1876768,3491139,244723,24979,2086,332,312,1049463,827305,1899501,756859,168340,877236,288044,1165280,344667,926768,8831,46584,453505,463403,293493,256633,14175,823820,141432,101.0,58.0
Andhra Pradesh,Khammam,17.683921325051784,80.67008643892335,541,2797370,1390988,1406382,1630234,1410062,2595321,158887,33463,655,217,459,802906,607156,1387308,804537,19799,669262,201363,870625,219710,668519,8628,42171,346118,238811,154774,160804,11887,616617,115379,101.0,58.0
Andhra Pradesh,Krishna,16.143872753151673,81.14805061000413,547,4517398,2267375,2250023,3009718,2048880,4023678,307043,145598,1393,863,6320,1327299,721581,2468518,1006976,48444,909292,567042,1476334,632890,1163932,30438,101450,692968,531821,312753,328454,27969,863382,328243,99.0,67.0
Andhra Pradesh,Kurnool,15.43759715142429,77.90086836581717,552,4053463,2039227,2014236,2127161,2029425,3328380,670737,33165,737,255,2235,1164122,865303,2024038,1037302,60791,783853,306982,1090835,195001,816721,10081,56478,672951,271828,152453,115504,10622,710444,156505,99.0,52.0
Andhra Pradesh,Mahbubnagar,16.639546224256293,77.98933089244859,538,4053028,2050386,2002642,1940646,2082501,3673456,334172,21345,658,290,388,1140067,942434,1970527,931084,57846,848963,161052,1010015,136843,757821,6153,60812,596134,308575,169083,98227,12615,800743,66068,98.0,48.0
Andhra Pradesh,Medak,17.889304978038055,78.13778901903379,535,3033288,1523030,1510258,1637137,1442203,2637313,342449,34301,1309,554,457,837874,604329,1591085,571129,67642,593653,195479,789132,163074,604719,8635,47170,503713,373729,201928,127493,14362,570933,90125,99.0,54.0
Andhra Pradesh,Nalgonda,17.113250515463907,79.16984453608244,539,3488809,1759772,1729037,2001019,1741693,3249231,188646,35025,937,241,250,976428,765265,1747116,863131,45124,833504,197433,1030937,228818,789225,7715,53777,518669,367424,238695,196134,18927,760789,103172,98.0,57.0
Andhra Pradesh,Nizamabad,18.429485849056604,78.07523490566035,533,2551335,1250641,1300694,1389810,1261076,2123426,391596,19653,2357,1847,542,684320,576756,1290259,448281,171311,565165,155133,720298,186740,545913,5261,35036,421399,396396,223365,141850,10088,490840,93887,104.0,54.0
Andhra Pradesh,Prakasam,15.489039001601704,80.11665790176184,549,3397448,1714764,1682684,1904435,1700567,3150195,220654,18775,266,97,204,991842,708725,1696881,889218,42603,873486,214089,1087575,290947,763746,6151,43611,495556,249034,142026,133627,9071,717208,127205,98.0,56.0
Andhra Pradesh,Srikakulam,18.570900998697432,84.25874814010675,542,2703114,1341738,1361376,1495381,1290288,2666950,9025,18879,193,77,160,766483,523805,1412826,700833,34479,752752,149684,902436,149554,615432,3988,32280,348354,251521,146721,121213,5264,610487,68045,101.0,55.0
Andhra Pradesh,Vizianagaram,18.28329696032972,83.45982854198873,543,2344474,1161477,1182997,1238388,1157962,2299129,16423,17853,380,114,815,679289,478673,1186512,557254,27469,592458,157056,749514,140361,527736,4453,24128,300057,186576,115144,103591,5002,514227,68076,102.0,53.0
Andhra Pradesh,Warangal,18.01752608695651,79.87422028985509,540,3512576,1759281,1753295,2065023,1705655,3273755,197333,31377,1453,253,569,960926,744729,1806921,758092,43550,758738,288249,1046987,237349,828077,12952,59006,457529,430242,279234,248942,15727,761465,117060,100.0,59.0
Andhra Pradesh,West Godavari,16.63297943925236,81.45912990654196,546,3936966,1964918,1972048,2652389,1773112,3733191,86142,109120,288,209,1578,1199338,573774,2163854,1061787,33861,1007255,248373,1255628,435334,1017568,12050,55613,718960,415178,215863,207586,14687,836015,207958,100.0,67.0
Arunachal Pradesh,Changlang,27.36048479338845,96.37552644628106,253,148226,76948,71278,73174,62966,47683,2134,35969,94,50381,95,39329,23637,85260,4208,496,33422,6498,39920,4762,14593,170,1486,22537,10032,5641,3633,1102,20141,5793,93.0,49.0
Arunachal Pradesh,East Kameng,27.371194055944056,93.04741486013997,247,78690,38775,39915,38449,31710,12333,652,37136,36,452,23,16424,15286,46980,1063,273,14503,5215,19718,3583,5318,57,885,10487,6213,4510,2330,577,12051,2014,103.0,49.0
Arunachal Pradesh,East Siang,28.15382352941176,95.06499226006191,251,99214,50116,49098,62576,40222,27854,2289,18254,69,776,30,23591,16631,58992,3565,493,19497,9524,29021,4866,14231,450,1582,13713,10937,9498,6540,2072,11640,5518,98.0,63.0
Arunachal Pradesh,Kurung Kumey,28.04853351800553,93.24531994459834,256,92076,45318,46758,36606,38044,4859,471,51189,43,121,81,18429,19615,54032,2947,833,18603,1092,19695,586,3911,95,969,15054,6997,4353,2031,605,15458,410,103.0,40.0
Arunachal Pradesh,Lohit,27.946785273972623,96.59670770547945,259,145726,76221,69505,83062,60945,99020,3846,10684,210,24452,104,38910,22035,84781,7789,786,33599,11372,44971,6549,17157,312,1471,25179,13070,7612,5180,1203,17340,7188,91.0,57.0
Arunachal Pradesh,Lower Dibang Valley,28.32651730103806,95.76567335640142,258,54080,28053,26027,31849,22326,28915,2247,9213,33,2932,19,14102,8224,31754,3354,233,12000,3950,15950,3068,5932,207,742,7957,5508,3570,2795,703,5317,3805,93.0,59.0
Arunachal Pradesh,Lower Subansiri,27.70849297297297,93.96226108108112,255,83030,41843,41187,54057,30202,9551,1482,34402,27,193,13,17339,12863,52828,1968,435,18112,5365,23477,4211,12493,381,1598,10821,9861,7674,5230,2002,11259,3062,98.0,65.0
Arunachal Pradesh,Papum Pare,27.273529716981127,93.54468183962264,248,176573,89182,87391,121048,65772,57027,6148,84397,310,4768,139,41263,24509,110801,1859,1543,20308,30180,50488,22966,30539,2477,7418,21956,20007,17342,13840,6454,15037,12769,98.0,69.0
Arunachal Pradesh,Tawang,27.680683962264148,91.82504245283016,245,49977,29151,20826,26073,28561,11842,787,776,1164,34920,72,19554,9007,21416,1581,114,10730,2452,13182,3794,8635,96,494,4730,2140,1989,1379,895,6820,2134,71.0,52.0
Arunachal Pradesh,Tirap,26.94406229508198,95.41470327868862,254,111975,57604,54371,47974,50169,20682,1103,83361,61,778,43,27545,22624,61806,1811,836,18420,6500,24920,3104,16026,98,888,16989,7834,4305,2134,679,15861,2575,94.0,43.0
Arunachal Pradesh,Upper Siang,28.8309244897959,95.00155765306124,252,35320,18699,16621,18195,17644,5261,411,5643,27,2577,7,9968,7676,17676,804,591,8569,2182,10751,1504,6198,97,392,5584,2935,2211,1349,430,5393,1047,89.0,52.0
Arunachal Pradesh,Upper Subansiri,28.277196566523585,93.8991435622318,249,83448,41758,41690,45278,33370,13474,521,8779,28,297,11,17898,15472,50078,1846,481,14542,4672,19214,3123,5373,139,750,16118,10348,8017,4276,569,13420,1635,100.0,54.0
Arunachal Pradesh,West Kameng,27.46486582278483,92.65015750452083,246,83947,46155,37792,48492,42493,31265,1970,8466,328,36087,71,28313,14180,41454,1705,801,17889,6306,24195,7133,14188,202,887,10317,5633,3987,2693,1299,9390,5787,82.0,58.0
Arunachal Pradesh,West Siang,28.106296920289843,94.53510344202908,250,112274,58168,54106,64746,49177,15881,2218,29969,577,3311,49,29156,20021,63097,1384,298,22272,8503,30775,6115,14204,303,1300,17675,11441,8418,6030,1964,14876,4678,93.0,58.0
Assam,Barpeta,26.427872264631056,90.97912010178116,303,1693622,867004,826618,897058,561824,492966,1198036,1020,112,49,399,445297,116527,1131798,98946,30342,447189,52192,499381,50806,84804,2078,25286,307884,121924,87377,46947,5560,326160,7625,95.0,53.0
Assam,Bongaigaon,26.45012521994133,90.6734296187684,319,738804,375818,362986,434078,255806,359145,371033,5924,384,236,871,197542,58264,482998,47406,9485,181923,38470,220393,29937,49866,2523,12959,138294,55924,35491,20221,5837,134382,12007,97.0,59.0
Assam,Cachar,24.815570668693017,92.86849650455927,316,1736617,886284,850333,1174128,608062,1038985,654816,37635,280,341,1673,469752,138310,1128555,68664,24466,346227,88933,435160,62135,140205,5316,37541,447993,156156,79766,45341,8700,324905,25190,96.0,68.0
Assam,Darrang,26.58463215962442,92.04141338028155,325,928500,475273,453227,487039,324843,327322,597392,1688,431,57,724,246864,77979,603657,81617,10542,268517,20189,288706,17676,45444,1166,12084,163277,59039,47398,22267,3533,180669,3789,95.0,52.0
Assam,Dhemaji,27.586533438485816,94.71336908517353,308,686133,351249,334884,423028,316800,655052,13475,8711,297,911,167,186577,130223,369333,19181,7224,211758,16504,228262,16547,28195,1192,10410,138838,80804,55399,28006,3504,122182,5984,95.0,62.0
Assam,Dibrugarh,27.30612284482757,95.0998282327587,310,1326335,676434,649901,884531,560557,1198401,64526,52968,2261,4673,1055,368013,192544,765778,61209,14362,299852,77163,377015,76292,136685,8817,34479,243607,139813,89500,59380,21112,195303,38157,96.0,67.0
Assam,Goalpara,26.017277777777807,90.59869891598912,302,1008183,513292,494891,563577,362573,347878,579929,77862,771,194,477,267118,95455,645610,75828,14346,228610,39504,268114,21455,78641,1364,13524,213510,73683,39885,18294,4112,190189,4793,96.0,56.0
Assam,Golaghat,26.377219709794485,93.82583397823468,313,1066888,543161,523727,721764,479928,917426,90312,50582,1131,3863,530,309104,170824,586960,66616,15068,292893,34190,327083,40889,82345,3073,17636,223902,111145,66197,36887,9295,193055,12450,96.0,68.0
Assam,Hailakandi,24.457496089385486,92.59154664804475,318,659296,337890,321406,407366,214240,251194,397653,8480,84,490,247,170792,43448,445056,31248,7313,159215,16202,175417,11035,44143,1211,10615,177984,50056,28504,11608,2583,134032,4264,95.0,62.0
Assam,Jorhat,26.76244824016563,94.30197722567289,312,1092256,556805,535451,794929,498618,1008219,54684,21051,1540,2378,719,320746,177872,593638,53153,31543,286330,80824,367154,71639,122063,5651,26357,201680,128050,97025,62608,16081,196137,21137,96.0,73.0
Assam,Kamrup,26.170939452054807,91.58863273972592,321,1517542,778461,739081,995319,628954,877495,601784,33297,319,185,1330,428492,200462,888588,99522,69106,390596,43849,434445,70272,122191,3109,23468,290097,154831,118849,55011,10052,295002,7808,95.0,66.0
Assam,Karbi Anglong,26.08966454598031,93.11536570271832,314,956313,490167,466146,557214,383441,766000,20290,157789,370,6260,397,246193,137248,572872,60952,9861,215691,37185,252876,18763,53918,1923,11340,212224,93137,40602,18225,3934,155192,16484,95.0,58.0
Assam,Karimganj,24.69660712250711,92.3679498575498,317,1228686,625864,602822,795297,399171,521962,692489,11990,114,446,524,319798,79373,829515,67033,17435,261945,32695,294640,28261,70951,1933,24699,333885,76685,39637,21408,3757,230546,10212,96.0,65.0
Assam,Kokrajhar,26.497246635730868,90.13997470997688,300,887142,452905,434237,489305,341131,529068,252271,101091,93,1718,396,236322,104809,546011,56330,12423,204896,17115,222011,15089,41373,1218,14063,166013,78788,39571,17287,2996,171597,4205,96.0,55.0
Assam,Lakhimpur,27.14128805970149,94.0775949253732,307,1042137,529674,512463,683486,429995,797130,193476,46217,412,1074,250,282250,147745,612142,43922,10983,293239,34694,327933,32104,60296,1948,15011,212080,107326,82885,44212,6904,183814,12407,97.0,66.0
Assam,Nagaon,26.26462170626351,92.9306191144708,305,2823768,1439112,1384656,1710716,979998,1225246,1563203,26844,3036,1073,1162,766728,213270,1843770,196174,38122,674999,124186,799185,89206,195631,5121,45956,638088,199792,115864,66994,13979,509358,32751,96.0,61.0
Assam,Nalbari,26.46323767605632,91.40598521126763,323,771639,396006,375633,531771,267623,491582,277488,429,62,27,1004,210202,57421,504016,34984,19302,210706,28238,238944,37849,68313,1631,12360,141690,81507,71734,39368,4785,149314,4519,95.0,69.0
Assam,Sonitpur,26.73514926829268,92.85197804878044,306,1924110,983904,940206,1108572,770606,1422824,350536,138166,1363,5088,1003,537195,233411,1153504,114865,25719,483325,64528,547853,70047,133368,4358,31254,416218,141373,90385,49901,11760,323644,22030,96.0,58.0
Assam,Tinsukia,27.53549291139241,95.69055949367085,309,1327929,680231,647698,798322,557196,1181347,48373,76877,1999,16228,837,366623,190573,770733,47756,13241,290704,90910,381614,70471,161718,5135,27948,266717,109805,61040,38152,13323,179202,37251,95.0,60.0
Bihar,Araria,26.211528119180603,87.30766554934816,209,2811569,1463333,1348236,1195768,1069893,1593525,1207442,4116,371,187,1910,708391,361502,1741676,691947,24367,659061,44213,703274,17004,43290,2561,29796,426625,112955,68177,39627,5041,550065,6185,92.0,43.0
Bihar,Aurangabad,24.774291867469877,84.45986024096379,235,2540073,1318684,1221389,1466002,837770,2291133,237353,2218,295,334,775,599157,238613,1702303,426096,40652,428291,49006,477297,24106,44456,2362,31168,482199,253142,136783,91371,7145,377134,6754,93.0,58.0
Bihar,Aurangabad,24.774291867469877,84.45986024096379,515,3701282,1924469,1776813,2503837,1575079,2545438,786677,15991,5142,309093,30981,1015864,559215,2126203,396630,28033,551789,427343,979132,246324,589477,23258,69937,686271,537936,310762,253253,33322,580691,138210,92.0,68.0
Bihar,Banka,24.832355642023337,86.8664916342413,225,2034763,1067140,967623,965321,771080,1772655,250925,6138,139,113,94,517817,253263,1263683,462614,26680,425604,18492,444096,15459,62359,1704,22300,386707,120653,63103,35767,3258,372571,3728,91.0,47.0
Bihar,Begusarai,25.54302613168723,86.12560144032932,222,2970541,1567660,1402881,1548673,938182,2554330,407348,2209,402,229,276,715345,222837,2032359,430870,58167,594377,139248,733625,49493,120373,4644,43127,484502,207136,144783,101836,9821,577162,10968,89.0,52.0
Bihar,Bhagalpur,25.277192885375477,87.04213814229242,224,3037766,1615663,1422103,1573066,983528,2487866,537098,3556,415,180,1050,740056,243472,2054238,475228,60461,522527,130634,653161,63241,174534,6764,46929,524322,247079,154643,118843,8644,540365,13460,88.0,52.0
Bihar,Bhojpur,25.50666439393939,84.49407803030304,231,2728407,1430380,1298027,1599151,822493,2518216,197819,2165,544,647,1472,640283,182210,1905914,364875,47985,434559,77368,511927,45763,62153,3661,34658,605307,313509,163303,131137,7391,401256,9625,91.0,59.0
Bihar,Buxar,25.48593018867924,84.08808081760995,232,1706352,887977,818375,989807,538322,1591454,105423,2125,248,5090,97,402180,136142,1168030,251790,26122,299252,35405,334657,27362,46760,1784,19324,420187,178044,89306,64117,5341,254972,4718,92.0,58.0
Bihar,Darbhanga,26.146187719298258,85.97387352472099,215,3937385,2059949,1877436,1816634,1223640,3042729,881476,3534,832,245,236,947927,275713,2713745,642115,44846,907174,95539,1002713,59510,127442,6280,53205,490534,224622,152540,129597,10325,785953,10615,91.0,46.0
Bihar,Gaya,24.7266541547278,84.94291217765044,236,4391418,2266566,2124852,2297613,1664062,3876395,488121,3943,913,870,1723,1076170,587892,2727356,783505,87178,696289,111282,807571,57738,112617,6856,57011,757690,342254,191824,131163,11827,665673,18754,94.0,52.0
Bihar,Gopalganj,26.44874364161851,84.34636127167629,217,2562012,1267666,1294346,1382998,728201,2119262,436057,2463,271,167,133,539586,188615,1833811,338666,26049,515925,38133,554058,31193,69375,3707,33596,470828,223776,123249,79109,9508,412706,5453,102.0,54.0
Bihar,Jamui,24.78418380462726,86.26316298200514,238,1760405,916064,844341,858588,727571,1525746,217621,8443,162,159,87,452288,275283,1032834,331466,105637,325909,30851,356760,12984,32633,1839,22414,317612,104211,56137,29633,4842,300265,5351,92.0,49.0
Bihar,Jehanabad,25.155679045643165,84.9208124481328,239,1125313,585582,539731,618881,365378,1045117,75742,691,148,248,60,266423,98955,759935,179519,15075,186660,28132,214792,15507,27641,1106,11302,165906,112966,68748,45519,2522,176076,4205,92.0,55.0
Bihar,Katihar,25.56565356037151,87.70466083591326,212,3071029,1600430,1470599,1280190,1013566,1684589,1365645,8659,2754,212,507,760522,253044,2057463,672291,20577,668232,69838,738070,32570,60900,2941,27263,444260,133811,88498,57114,5118,595596,11309,92.0,42.0
Bihar,Khagaria,25.53558891454964,86.56593256351037,223,1666886,883786,783100,768028,560805,1486989,175588,1253,143,79,86,398216,162589,1106081,325731,20816,373696,21007,394703,15401,40641,1580,21654,233494,100555,65931,38697,3120,321312,3292,89.0,46.0
Bihar,Kishanganj,26.324336758321294,87.95045007235886,210,1690400,866970,823430,745056,529064,531236,1149095,5783,398,183,1476,421192,107872,1161336,321867,11633,401793,43357,445150,11715,58718,1093,14073,235779,42778,25989,15386,2436,326865,4776,95.0,44.0
Bihar,Lakhisarai,25.183449321266963,86.12825701357468,227,1000912,526345,474567,507270,326576,956396,40886,487,140,52,78,240494,86082,674336,159970,13546,175882,31763,207645,12938,44491,1186,8862,149312,85807,48001,27261,2415,158930,3444,90.0,51.0
Bihar,Madhepura,25.77341929460581,86.8978443983403,213,2001762,1047559,954203,834577,777546,1753829,241760,1342,170,60,133,496046,281500,1224216,484062,16347,486278,24000,510278,12302,23236,1397,23309,189431,99437,79891,44955,4560,394241,3072,91.0,42.0
Bihar,Madhubani,26.41380538172716,86.16328360450552,207,4487379,2329313,2158066,2155338,1636938,3652168,818912,3262,564,328,442,1105947,530991,2850441,940642,54934,1047552,41234,1088786,47090,113281,5319,65548,771417,303114,170563,137780,11636,884913,8410,93.0,48.0
Bihar,Munger,25.198537962962963,86.54173672839504,226,1367765,729041,638724,801817,426658,1252319,110416,1815,338,95,145,327453,99205,941107,196449,16690,222281,85782,308063,49141,90461,2653,17946,158699,147152,101907,64469,3755,248457,11182,88.0,59.0
Bihar,Muzaffarpur,26.18664417177915,85.32745092024543,216,4801062,2527497,2273565,2509232,1547586,4032773,745546,5149,933,288,382,1195308,352278,3253476,769001,65253,998694,120700,1119394,87796,180651,10290,73012,743623,299475,194920,138916,23333,911967,22474,90.0,52.0
Bihar,Nalanda,25.229345508982053,85.48053113772461,229,2877653,1497060,1380593,1519933,1045420,2669775,198033,1978,393,414,561,703405,342015,1832233,534021,52585,514141,102522,616663,43761,101378,4156,43848,486266,274556,177358,133032,7955,464186,17540,92.0,53.0
Bihar,Nawada,24.825708836206903,85.61594568965519,237,2219146,1144668,1074478,1091012,817041,1964620,244394,1299,250,176,279,539439,277602,1402105,397505,40018,379551,45323,424874,20522,31162,1841,28411,368649,161127,95943,64585,3991,336216,7706,94.0,49.0
Bihar,Pashchim Champaran,27.16064352201258,84.30265911949685,203,3935042,2061110,1873932,1759481,1478947,3047427,865090,8469,926,1337,296,999282,479665,2456095,998833,38691,839514,96620,936134,38414,57546,3495,41143,543965,159563,98732,70669,10911,694531,7910,91.0,45.0
Bihar,Patna,25.40297114503818,85.3198433587787,230,5838465,3078512,2759953,3459679,1881886,5356075,439952,12551,4803,1062,2151,1436411,445475,3956579,658203,85349,657991,552103,1210094,321307,546859,40692,132582,1095655,698351,463361,452340,49821,829728,104162,90.0,59.0
Bihar,Purba Champaran,26.68129336734693,85.00382155612242,204,5099371,2681209,2418162,2276957,1737539,4086453,990349,4865,668,878,464,1260774,476765,3361832,1057417,46164,1142260,101565,1243825,52358,74979,7719,70258,982506,241118,121594,68781,19282,967001,9489,90.0,45.0
Bihar,Purnia,25.81714801901739,87.40447606973065,211,3264619,1699370,1565249,1332326,1143318,1989420,1255641,7989,614,353,1450,803275,340043,2121301,745015,28840,712847,85749,798596,33688,86058,4170,33664,360243,119259,83226,59996,8390,624039,8720,92.0,41.0
Bihar,Rohtas,24.99170460829495,83.9350762672811,234,2959918,1543546,1416372,1799832,924879,2645415,300487,2889,2569,1584,252,707939,216940,2035039,405544,48512,512383,95678,608061,41659,114893,4594,36279,548971,333053,194928,161555,10819,433720,15995,92.0,61.0
Bihar,Saharsa,25.821270696721303,86.54670819672135,214,1900661,997174,903487,804996,649898,1629254,266620,1292,197,60,109,456724,193174,1250763,356833,18651,432651,38046,470697,21651,41342,1668,19415,194897,90182,64560,47051,3824,359161,5426,91.0,42.0
Bihar,Samastipur,25.793205563909765,85.94833323308269,221,4261566,2230003,2031563,2142880,1343400,3800598,452370,2126,554,292,231,1037576,305824,2918166,721629,47917,1012979,43486,1056465,46123,88021,5379,50918,710468,284082,186153,129933,10621,829443,10874,91.0,50.0
Bihar,Saran,25.89656077844312,84.82266287425155,219,3951862,2022821,1929041,2157454,1040231,3534772,406449,2330,371,229,322,857660,182571,2911631,493461,42103,701323,76299,777622,51822,94787,4509,37442,693465,361171,213251,148065,10948,628222,8764,95.0,55.0
Bihar,Sheikhpura,25.12472436548223,85.77839390862943,228,636342,329743,306599,328676,224655,596102,37653,313,75,41,43,151569,73086,411687,109696,9917,108293,24345,132638,6803,20065,631,8873,110525,52860,33856,19676,1728,100345,2119,93.0,52.0
Bihar,Sheohar,26.458380748663107,85.29539411764709,205,656246,346673,309573,283698,216372,552492,99342,522,216,73,52,166693,49679,439874,136334,9119,158484,7516,166000,3983,10004,478,6698,91277,25657,16031,10091,1410,147280,830,89.0,43.0
Bihar,Sitamarhi,26.56570069686413,85.61172491289203,206,3423574,1803252,1620322,1436794,1114583,2672311,740101,2897,261,253,188,865929,248654,2308991,635907,37932,807294,49670,856964,39465,66263,3460,42461,394422,136500,92783,70549,7292,720630,6856,90.0,42.0
Bihar,Siwan,26.1736372013652,84.33766552901022,218,3330464,1675090,1655374,1930175,932416,2712635,608282,2618,369,407,359,730396,202020,2398048,376344,31244,632514,41858,674372,42384,52935,3834,37833,612635,355277,186817,119164,10891,535085,6347,99.0,58.0
Bihar,Supaul,26.28157893772896,86.78496465201461,208,2229076,1155283,1073793,1033283,877682,1809936,409251,3758,271,136,546,551718,325964,1351394,554271,22555,572287,27815,600102,12111,51028,1845,25078,269737,99530,69665,45726,4064,430158,5069,93.0,46.0
Bihar,Vaishali,25.8134703180212,85.39247597173153,220,3495021,1844535,1650486,1926740,1060344,3152346,333980,2203,707,362,246,858648,201696,2434677,502637,36958,699317,51494,750811,47300,70001,4810,39564,487594,291392,178320,124448,11316,620927,6879,89.0,55.0
Chandigarh,Chandigarh,30.7426,76.75872465753424,55,1055450,580663,474787,805438,404136,852574,51447,8720,138329,1160,1960,328159,75977,651314,1687,4799,8911,289456,298367,168344,231204,44283,78113,118667,124707,98786,174528,60494,112043,110377,82.0,76.0
Chhattisgarh,Bastar,19.393866751269048,81.52895126903546,414,1413199,698487,714712,650863,726531,1277975,12413,27951,2099,985,3466,404364,322167,686668,287828,10821,316425,54894,371319,22075,157646,1782,9042,178766,60936,57413,32895,4227,287405,13252,102.0,46.0
Chhattisgarh,Bilaspur,22.356942982456143,81.99770350877188,30,381956,192764,189192,287620,205871,371973,6984,236,2387,113,10,111543,94328,176085,4138,2561,152458,11987,164445,17262,79146,1574,6281,59489,64730,45695,25474,6573,75560,4092,98.0,75.0
Chhattisgarh,Bilaspur,22.356942982456143,81.99770350877188,406,2663629,1351574,1312055,1596560,1203197,2540763,57973,20745,6373,2979,2357,715467,487730,1460432,572292,21658,549632,188174,737806,77727,519704,8566,30892,407692,189296,152838,134637,13137,561313,37623,97.0,60.0
Chhattisgarh,Dhamtari,20.554912627291245,81.7569195519348,412,799781,397897,401884,546833,402895,777188,10425,2644,1196,667,3612,226382,176513,396886,182602,7310,168689,41792,210481,14568,148926,1016,4804,148544,65196,58875,31319,3069,156006,6283,101.0,68.0
Chhattisgarh,Durg,21.194463849287164,81.33181639511197,409,3343872,1682101,1661771,2303378,1496805,3129745,83499,24304,24276,19587,17209,921729,575076,1847067,560415,22565,533448,349741,883189,129193,614109,16141,51289,573291,309508,286244,202424,28840,582952,74863,99.0,69.0
Chhattisgarh,Jashpur,22.77286167664669,83.8703962075848,402,851669,424747,426922,495415,487360,629509,15336,189588,474,467,694,263645,223715,364309,197558,7553,205670,20722,226392,6628,76783,567,5755,137681,64188,50562,26161,2442,179774,7347,101.0,58.0
Chhattisgarh,Korba,22.491712499999995,82.57604326923074,404,1206640,612915,593725,748759,521186,1133176,30195,21059,3666,897,753,333329,187857,685454,221806,7899,206598,126055,332653,43357,202380,4544,18004,188303,89167,83166,61215,8677,232642,29297,97.0,62.0
Chhattisgarh,Koriya,23.50412776859501,82.12515636363635,400,658917,334737,324180,397823,307071,604259,25878,9398,1391,84,1155,185483,121588,351846,94648,4830,121852,59763,181615,25605,80023,1667,7609,109639,47127,38677,26802,3402,124298,17842,97.0,60.0
Chhattisgarh,Mahasamund,21.223727037773354,82.65925427435384,411,1032754,511967,520787,637963,499260,1008061,12570,5284,2941,521,1495,291858,207402,533494,278073,6135,274793,35774,310567,13200,212487,961,5614,194739,78583,57949,33357,3546,241908,7773,102.0,62.0
Chhattisgarh,Raigarh,22.008265068493166,83.27797698630134,403,1493984,750278,743706,951639,690167,1422986,17332,47653,2117,781,409,429211,260956,803817,323788,9959,354278,66638,420916,27771,297308,3342,13857,260661,130700,93340,66358,5979,331942,19805,99.0,64.0
Chhattisgarh,Raigarh,22.008265068493166,83.27797698630134,520,2634200,1344345,1289855,1939994,1072969,2239370,227465,17452,7477,121791,12260,753843,319126,1561231,191182,32919,581868,377160,959028,328277,547206,38570,96301,407662,441072,221410,204507,43536,463109,119513,96.0,74.0
Chhattisgarh,Raipur,20.88603153846152,82.20032759615388,410,4063872,2048186,2015686,2629749,1757664,3881485,103038,23181,16707,8397,17137,1099964,657700,2306208,708993,34078,673499,395001,1068500,166505,728556,20261,59523,664470,313247,267265,227382,30572,739497,86940,98.0,65.0
Chhattisgarh,Surguja,23.32719278728607,83.23582493887531,401,2359886,1193129,1166757,1187941,1155807,2126195,81442,97432,2303,1287,623,649888,505919,1204079,523356,12643,525596,65167,590763,29433,253131,2737,18983,338509,135374,105992,64607,8096,492651,18701,98.0,50.0
Daman and Diu,Daman,20.431616666666677,72.8392366071429,495,191173,124659,66514,150348,105521,171537,16087,2618,169,216,244,94502,11019,85652,481,409,10006,61073,71079,25844,49249,1316,4543,28094,26991,14170,9128,3163,14722,33493,53.0,79.0
Daman and Diu,Junagadh,20.72568199498111,70.83985639899612,479,2743082,1404356,1338726,1842818,1123709,2397056,334858,2586,1110,1291,3841,801859,321850,1619373,333996,9645,489237,287506,776743,144561,498326,6628,26991,700258,311849,137505,139957,17447,457405,57119,95.0,67.0
Goa,North Goa,15.548723418714054,73.80667997909038,585,818008,416677,401331,663060,327658,622213,57941,134169,618,553,546,239125,88533,490350,14120,8862,115859,209230,325089,132612,173951,23440,56266,101521,153887,87513,86781,44342,145651,26362,96.0,81.0
Goa,South Goa,15.195278658183785,73.941792596877,586,640537,322463,318074,502427,249590,341664,63623,231961,855,542,563,180411,69179,390947,12640,5846,88620,162873,251493,102191,138810,17624,44299,73039,108989,64786,57460,35031,108881,29829,99.0,78.0
Gujarat,Ahmadabad,22.605425564971743,72.23898135593227,474,7214225,3788051,3426174,5435760,2594952,6042416,883238,50754,14542,4518,209287,2127547,467405,4619273,268954,54876,353169,1845383,2198552,965017,1456046,126341,273651,1614370,1135058,549188,839295,174812,1193694,269205,90.0,75.0
Gujarat,Amreli,21.04832649310872,71.43457637825426,480,1514190,771049,743141,995459,657139,1410463,99105,919,415,243,2053,453642,203497,857051,209935,6083,313714,116899,430613,80378,273331,2538,12765,412251,149478,66785,50999,10236,265928,21529,96.0,66.0
Gujarat,Anand,22.282718206229863,72.57782051557454,482,2092745,1087224,1005521,1551253,844794,1798794,250919,29789,1524,267,8591,627561,217233,1247951,346329,16460,413078,208909,621987,147122,378310,9902,32523,560542,283571,127459,110351,19352,379759,31488,92.0,74.0
Gujarat,Banas Kantha,24.258538965517253,71.93205252873561,469,3120506,1610379,1510127,1704923,1248600,2890305,213505,1686,486,281,12659,836268,412332,1871906,350541,11812,666773,137424,804197,84832,396873,3424,23149,859436,226765,105372,66950,22723,515862,33035,94.0,55.0
Gujarat,Bharuch,21.75787276237761,72.67326346710801,488,1551019,805707,745312,1118276,627124,1188204,343511,9494,1733,442,4813,468919,158205,923895,253577,8902,300677,181319,481996,121542,309091,10257,29531,367060,188539,83895,74380,21579,279792,44555,93.0,72.0
Gujarat,Bhavnagar,21.70219390341736,72.16272632761141,481,2880365,1490201,1390164,1887255,1150632,2632574,212863,3457,1410,445,26974,838781,311851,1729733,334025,17996,387251,356826,744077,171327,500757,7297,28925,929286,281250,96241,93391,17517,467094,61608,93.0,66.0
Gujarat,Gandhinagar,23.193679790026252,72.67221679790026,473,1391753,723864,667889,1030494,534976,1319586,57273,3237,1985,497,6405,408075,126901,856777,129356,8600,237624,195634,433258,132683,262539,12107,33662,363156,196456,95730,108400,26385,234873,41902,92.0,74.0
Gujarat,Jamnagar,22.410600414263328,69.62062005768233,477,2160119,1114192,1045927,1396534,847440,1810443,320805,4392,1873,1086,18856,646822,200618,1312679,147193,11359,347158,299167,646325,142974,386538,11573,30384,491009,199634,74029,87523,20471,354786,56645,94.0,65.0
Gujarat,Junagadh,20.929523011609785,70.54733890140345,479,2743082,1404356,1338726,1842818,1123709,2397056,334858,2586,1110,1291,3841,801859,321850,1619373,333996,9645,489237,287506,776743,144561,498326,6628,26991,700258,311849,137505,139957,17447,457405,57119,95.0,67.0
Gujarat,Kachchh,23.48057203301311,68.82192301497916,468,2092371,1096737,995634,1252319,776228,1608921,442355,6192,6353,490,25312,624704,151524,1316143,183971,10802,488293,250982,739275,140067,403294,9631,31961,469402,157284,61366,60386,28788,328271,83137,91.0,60.0
Gujarat,Kheda,22.88765312500002,73.018803515625,483,2299885,1185727,1114158,1660243,933983,2000884,264482,26629,1403,300,3479,674586,259397,1365902,359842,12455,461479,160547,622026,99982,372226,5710,24502,641541,310341,148530,84223,12788,429236,22358,94.0,72.0
Gujarat,Mahesana,23.529355452865065,72.45545194085031,471,2035064,1056520,978544,1502645,812064,1885732,136431,1954,1082,146,7087,588699,223365,1223000,242969,10282,476005,183738,659743,180985,385609,7759,33731,467128,266108,139208,130723,25163,371860,43193,93.0,74.0
Gujarat,Narmada,21.70666386292833,73.68403208722742,487,590297,301086,289211,370336,294795,559848,22600,4413,147,80,373,174282,120513,295502,188030,2594,138121,22248,160369,12997,101940,576,4081,146661,52687,28396,14748,2442,115602,4801,96.0,63.0
Gujarat,Navsari,20.866973318871995,72.86184869848157,490,1329672,678165,651507,1001909,591834,1225087,78669,5733,2459,601,13386,407881,183953,737838,206608,7173,267739,141417,409156,114620,267679,6726,24397,266733,190861,112460,85041,18669,262571,25882,96.0,75.0
Gujarat,Panch Mahals,22.80435606837605,73.61984598290586,484,2390776,1226961,1163815,1440805,1097507,2220974,158513,2863,662,337,5236,673565,423942,1293269,376038,10771,463363,104238,567601,59096,398937,3456,19753,601358,283648,139773,71810,9656,425072,15044,95.0,60.0
Gujarat,Patan,23.80634198473284,71.75162977099237,470,1343734,694397,649337,837913,554830,1194745,142797,916,337,66,3602,383074,171756,788904,227080,6392,301483,102655,404138,66310,223424,2231,12870,364667,129584,57494,46355,7802,245138,19197,94.0,62.0
Gujarat,Porbandar,21.55092351651571,69.71896987722886,478,585449,300209,285240,393678,231169,549749,33565,500,248,91,515,174118,57051,354280,48964,2371,96015,87557,183572,41686,117040,1653,5639,150643,63458,25119,22458,4395,103353,16208,95.0,67.0
Gujarat,Rajkot,22.40603377715488,70.83679439383323,476,3804558,1974445,1830113,2725056,1479050,3397406,361388,5478,1918,1170,33591,1159480,319570,2325508,214285,23780,459474,721532,1181006,362140,747352,21785,67370,913928,540278,204306,266295,55289,644828,111779,93.0,72.0
Gujarat,Sabar Kantha,23.71803594548552,73.13638790459964,472,2428589,1244231,1184358,1578734,1084878,2260560,148563,6375,614,168,11110,681435,403443,1343711,333867,10909,544024,121509,665533,99037,438606,5262,25425,597667,333650,198963,110817,22379,450063,22065,95.0,65.0
Gujarat,Surat,21.25761372772093,72.93488716344339,492,6081322,3402224,2679098,4571410,2553542,5260193,660772,21052,5703,12902,112835,2142819,410723,3527780,325739,42040,369840,1529998,1899838,815423,1252452,55694,149331,1332690,896927,433651,379505,106983,788508,478407,79.0,75.0
Gujarat,Surendranagar,22.82672007299272,71.48358740875906,475,1756268,909917,846351,1093626,723500,1620282,109681,1419,512,312,22992,504038,219462,1032768,270861,9518,340788,159810,500598,77857,302068,2975,15309,482679,172947,61164,58389,10088,306924,26468,93.0,62.0
Gujarat,The Dangs,20.801633877551023,73.6883518367347,489,228291,113821,114470,140968,118257,203545,3593,20029,69,32,39,61329,56928,110034,40486,1172,52102,7516,59618,2029,29794,137,1393,59954,14872,7560,3490,991,46314,1291,101.0,62.0
Gujarat,Vadodara,22.26133739279589,73.49433010291594,486,4165626,2153736,2011890,2893080,1693473,3713941,384579,23813,9340,2069,27650,1233312,460161,2472153,570361,17680,547454,692971,1240425,411734,798277,53606,117818,865726,504732,268451,314960,72630,771779,88479,93.0,69.0
Gujarat,Valsad,20.44238231644259,72.9148584798345,491,1705678,887222,818456,1170657,743245,1571147,94034,19661,1589,913,13809,516188,227057,962433,183025,11833,262410,235981,498391,137209,329218,11020,31285,303197,212318,123281,90912,23938,297911,58586,92.0,69.0
Haryana,Ambala,30.3503672316384,76.94970310734456,70,1128350,598703,529647,818025,372139,955096,22143,3705,138202,381,4845,320120,52019,756211,57293,15753,175365,139891,315256,121622,199681,12899,32767,170110,163544,97980,91472,26122,183898,18611,88.0,72.0
Haryana,Bhiwani,28.728868064516128,76.02110225806452,81,1634445,866672,767773,1069871,623006,1611031,15515,873,2401,254,1016,430678,192328,1011439,103788,14855,357047,99235,456282,88938,266244,5292,25236,223049,218631,148995,104875,16793,293443,11408,89.0,65.0
Haryana,Faridabad,28.14873109756098,77.32718536585368,88,1809733,966110,843623,1272739,579229,1588407,161680,9743,34572,640,4883,476933,102296,1230504,29288,32286,87700,382981,470681,258422,333171,43437,82673,220384,282666,178846,259933,63470,276186,69917,87.0,70.0
Haryana,Fatehabad,29.57298318584072,75.54608716814157,78,942011,495360,446651,557578,369083,779243,8360,996,150969,171,1172,263498,105585,572928,97997,6558,203020,55360,258380,51693,153301,3210,13142,136663,93526,61476,37741,14030,162708,8832,90.0,59.0
Haryana,Gurgaon,28.043894789579163,77.01935130260523,86,1514432,816690,697742,1111116,544716,1408801,70842,9725,15097,944,7451,432456,112260,969716,27097,18228,141703,381988,523691,238359,305751,67087,102343,177453,219200,150120,233402,92934,211728,98060,85.0,73.0
Haryana,Hisar,29.23628731117825,75.84324682779452,80,1743931,931562,812369,1114311,691621,1701061,21650,1945,12270,334,3620,488321,203300,1052310,144213,16097,302013,154113,456126,110495,285004,10132,33400,230074,202792,144626,105346,24642,295628,23078,87.0,64.0
Haryana,Jhajjar,28.59651868131869,76.61137142857145,83,958405,514667,443738,676091,326534,945693,8247,734,1042,105,645,250020,76514,631871,44845,9254,211816,78328,290144,70149,168558,5034,19241,109829,145258,97457,58826,14298,168223,12154,86.0,71.0
Haryana,Jind,29.45149821958457,76.29598575667653,77,1334152,713006,621146,832758,523422,1276669,23016,889,29103,172,2594,368277,155145,810730,102071,9114,278335,89665,368000,78386,222462,5263,23750,185626,154773,107994,64599,15836,227870,12316,87.0,62.0
Haryana,Kaithal,29.96068539094649,76.37698930041155,73,1074304,571003,503301,646529,373899,974520,8232,1769,87558,265,351,292696,81203,700405,85651,9450,231091,75696,306787,62668,187349,3724,15301,158239,117753,82297,51043,12792,189832,7550,88.0,60.0
Haryana,Karnal,29.703200647249204,76.87488025889972,74,1505324,797712,707612,978013,516062,1341002,31650,2049,126207,532,1516,411646,104416,989262,133723,15311,292682,135920,428602,143133,267223,11163,29253,231354,183590,124790,101387,26238,258981,19328,89.0,65.0
Haryana,Kurukshetra,30.05652659846548,76.78774680306903,72,964655,510976,453679,646893,336780,805175,15970,1943,140395,214,375,268556,68224,627875,85890,6726,203553,88268,291821,90150,171908,7356,21951,145392,120790,81964,71007,20261,162147,13063,89.0,67.0
Haryana,Mahendragarh,28.1352161458333,76.14018072916659,84,922088,486665,435423,630255,338584,913251,5660,301,1737,75,644,232935,105649,583504,38320,7639,223726,44216,267942,45359,135455,2624,13908,135849,132765,94245,60296,8538,162961,3691,89.0,68.0
Haryana,Panchkula,30.700897142857134,76.97173238095236,69,561293,299679,261614,405318,211479,490702,23451,2583,40951,1008,1626,164865,46614,349814,12827,9870,70895,93656,164551,69687,103455,18615,32174,73584,69163,48306,83256,29497,78722,24115,87.0,72.0
Haryana,Panipat,29.34352134146342,76.92895914634147,75,1205437,646857,558580,786599,412318,1083936,86622,2261,25064,289,4647,328667,83651,793119,62358,15824,173502,153804,327306,121846,209965,10024,26719,170565,141473,91756,75774,17466,182191,32473,86.0,65.0
Haryana,Rewari,28.19164714828897,76.55956007604564,85,900332,474335,425997,636947,337727,889133,5713,701,1804,202,1525,235326,102401,562605,28215,9782,199449,69305,268754,62667,152651,5121,18092,120860,139646,95807,65143,12161,156650,9969,90.0,71.0
Haryana,Rohtak,28.892517647058817,76.53123235294117,82,1061204,568479,492725,747582,345967,1043887,8185,732,3916,200,3491,272646,73321,715237,36568,8521,175203,131739,306942,94633,193120,8482,27225,150903,168499,109596,100346,16545,185204,15541,87.0,70.0
Haryana,Sirsa,29.63583446327684,74.90970480225988,79,1295189,682582,612607,782897,502003,940255,9524,2186,338962,370,2256,369462,132541,793186,147042,11952,245476,93316,338792,70538,215527,6287,22706,201349,134559,83373,61620,24468,219428,12951,90.0,60.0
Himachal Pradesh,Bilaspur,31.3780422907489,76.65316079295157,30,381956,192764,189192,287620,205871,371973,6984,236,2387,113,10,111543,94328,176085,4138,2561,152458,11987,164445,17262,79146,1574,6281,59489,64730,45695,25474,6573,75560,4092,98.0,75.0
Himachal Pradesh,Bilaspur,31.3780422907489,76.65316079295157,406,2663629,1351574,1312055,1596560,1203197,2540763,57973,20745,6373,2979,2357,715467,487730,1460432,572292,21658,549632,188174,737806,77727,519704,8566,30892,407692,189296,152838,134637,13137,561313,37623,97.0,60.0
Himachal Pradesh,Chamba,32.66741814595661,76.39354063116366,23,519080,261320,257760,323842,294035,479782,32455,1559,2745,1740,57,158791,135244,225045,9193,4521,186395,13836,200231,21458,96082,1615,5117,96789,64515,40440,15506,5074,94367,6546,99.0,62.0
Himachal Pradesh,Hamirpur,31.67668481012659,76.49767088607594,28,454768,217070,237698,358091,241931,449412,3711,243,591,95,293,118724,123207,212837,8824,3347,196116,15232,211348,34978,104120,2521,7525,71107,91184,64363,35620,6665,99538,4452,110.0,79.0
Himachal Pradesh,Hamirpur,31.67668481012659,76.49767088607594,168,1104285,593537,510748,653299,443655,1010014,91269,814,196,74,41,308527,135128,660630,181449,19876,256081,55300,311381,20175,55929,1196,11037,238344,103334,59914,59612,3791,202503,4809,86.0,59.0
Himachal Pradesh,Kangra,32.14093603238864,76.41205910931173,24,1510075,750591,759484,1152640,675170,1461140,19797,3023,8929,14511,194,403756,271414,834905,54849,15662,588321,39007,627328,148361,330081,8053,22753,243617,284124,192936,91236,22727,314828,16832,101.0,76.0
Himachal Pradesh,Kinnaur,31.60667184065933,78.51613736263741,34,84121,46249,37872,60699,56273,64732,448,485,249,18086,29,33863,22410,27848,2537,944,44514,0,44514,10740,17865,354,2563,13749,11140,7871,5118,2775,13926,4511,82.0,72.0
Himachal Pradesh,Kullu,31.90911922077925,77.40922649350647,26,437903,225452,212451,307672,269084,415669,2974,1568,1396,15377,94,148829,120255,168819,12372,2707,167995,20709,188704,40064,91322,2623,7010,77363,58122,39081,23168,8479,80610,12616,94.0,70.0
Himachal Pradesh,Mandi,31.635805940594054,76.96556930693067,27,999777,498065,501712,723747,572671,981412,9460,876,4081,2628,43,297464,275207,427106,15822,7134,431129,31696,462825,59324,214491,5333,16401,159043,180188,128549,54139,15958,205510,11024,101.0,72.0
Himachal Pradesh,Shimla,31.155725451807253,77.62573042168668,33,814010,425039,388971,612642,430926,791449,11810,2025,4047,3262,185,258628,172298,383084,26114,7967,279269,95896,375165,108888,172754,9177,24127,113536,141490,95341,80414,23107,126522,44241,92.0,75.0
Himachal Pradesh,Sirmaur,30.682764453961443,77.43184689507493,32,529855,276289,253566,362645,280083,476830,33215,577,15501,2645,236,169399,110684,249772,10730,5313,171102,21054,192156,28904,91509,2220,8593,100123,67080,38282,23352,7459,83947,10156,92.0,68.0
Himachal Pradesh,Solan,31.03864311926604,76.94442140672783,31,580320,308754,271566,428578,298737,548579,14678,1452,13926,574,591,190001,108736,281583,10283,4969,192787,51509,244296,53722,119866,5250,14478,89407,95232,59363,36803,15117,86649,31305,88.0,74.0
Himachal Pradesh,Una,31.58330388349513,76.18353932038836,29,521173,263692,257481,399715,215346,480138,14275,390,26009,56,70,141612,73734,305827,19604,3427,185091,20126,205217,43809,105929,2412,8238,87913,105204,60626,32120,8059,101443,5195,98.0,77.0
Jammu and Kashmir,Doda,33.359614675767915,76.07163720136518,16,409936,213641,196295,219083,151912,187621,220614,472,422,21,22,101144,50768,258024,12199,1932,122267,11350,133617,7963,61831,596,3077,47350,48359,31416,12647,1804,76189,1997,92.0,53.0
Jammu and Kashmir,Jammu,32.713199095022645,74.8477520361991,21,1529958,813821,716137,1137135,508622,1289240,107489,12104,114272,470,1987,417456,91166,1021336,36873,10589,254566,248043,502609,197168,294739,19905,46657,185962,261852,159257,146501,44063,274859,18255,88.0,74.0
Jammu and Kashmir,Kargil,33.565994894894914,76.63675315315312,4,140802,77785,63017,86236,51873,10341,108239,604,1171,20126,28,39839,12034,88929,3763,1222,40370,7774,48144,3285,15824,235,1005,19083,16938,9826,3077,1847,16646,1419,81.0,61.0
Jammu and Kashmir,Kathua,32.51781678321678,75.58901398601404,7,616435,326109,290326,389204,200431,540063,64234,1828,9551,24,16,161548,38883,416004,21566,3952,181374,33473,214847,32772,109422,1443,6112,82715,91522,47694,24330,4687,114949,2179,89.0,63.0
Jammu and Kashmir,Pulwama,33.88414418604652,75.00921860465118,12,560440,293064,267376,293958,188420,13840,535159,1109,9440,35,6,138428,49992,372020,34080,10615,147520,21703,169223,16828,73629,1537,5293,54808,67368,40931,31286,6164,80452,459,91.0,52.0
Jammu and Kashmir,Punch,33.791241290322574,74.29593161290322,5,476835,251899,224936,261724,161393,32604,431279,958,11188,83,10,117677,43716,315442,31583,3930,132139,15269,147408,13160,62900,346,3342,72024,46062,29517,13962,1731,87711,762,89.0,55.0
Jammu and Kashmir,Srinagar,34.27312898550724,75.11021159420288,10,1236829,651124,585705,748584,407188,42540,1177342,2746,12187,285,74,333151,74037,829641,10408,20095,4518,257721,262239,138119,165403,16413,33831,173309,176409,132727,121856,34586,160923,5135,90.0,61.0
Jammu and Kashmir,Udhampur,33.04770670731707,75.15286951219511,19,554985,296784,258201,322354,243672,489044,59771,1962,3418,106,57,163845,79827,311313,11396,2641,148664,34696,183360,20008,73999,1214,5744,80129,55024,29657,17345,3800,90329,2544,87.0,58.0
Jharkhand,Bokaro,23.6814965034965,85.98398374125864,355,2062330,1072807,989523,1273520,685368,1636460,241451,13730,4174,1890,2045,507677,177691,1376962,126406,21671,250312,258452,508764,67157,274726,9754,37997,338861,232434,154076,116396,21098,292464,67373,92.0,62.0
Jharkhand,Chatra,24.11619945750453,84.93295804701627,347,1042886,533935,508951,510061,397690,903179,116710,6565,888,35,129,251213,146477,645196,188513,14210,200974,14528,215502,5307,27037,590,9115,161729,63670,35342,21697,2110,176487,2533,95.0,49.0
Jharkhand,Deoghar,24.33070100755672,86.75697632241814,350,1492073,775022,717051,793538,551467,1165140,302626,6027,143,188,282,383691,167776,940606,209693,39361,257373,64337,321710,26760,130193,1944,13550,266292,96331,54419,43979,3714,249689,7201,93.0,53.0
Jharkhand,Dhanbad,23.854509090909097,86.40372924901185,354,2684487,1405956,1278531,1722204,844504,2149480,431762,11243,9727,331,1268,658851,185653,1839983,103488,25889,258764,405455,664219,83995,427173,11568,46646,501453,305054,186697,107382,18631,359496,76629,91.0,64.0
Jharkhand,Dumka,24.275006125574265,87.27662450229711,362,1321442,668514,652928,672409,624779,1044726,106865,86404,234,267,162,367108,257671,696663,303084,23106,303697,23281,326978,11836,62110,1193,10396,229259,69525,38383,25593,2912,267228,3967,98.0,51.0
Jharkhand,Garhwa,24.082114689265527,83.68664265536722,346,1322784,683575,639209,653476,571431,1104475,194680,17168,123,371,20,335451,235980,751353,328673,14487,272872,19180,292052,6798,29373,565,8881,195565,87844,46882,28144,2671,250350,2997,94.0,49.0
Jharkhand,Giridih,24.30578509874329,86.08710915619386,349,2445474,1258098,1187376,1253475,1036277,1856202,508586,14645,937,650,1503,623946,412331,1409197,362610,32544,452564,46886,499450,16909,125431,1944,19976,443980,146464,77540,55122,6290,381432,6860,94.0,51.0
Jharkhand,Godda,24.8189,87.2941735483871,351,1313551,677927,635624,604519,552191,937126,289182,37795,97,128,115,344019,208172,761360,307767,18719,276454,15576,292030,7421,43230,874,11925,190777,79430,47395,30870,1754,245973,2288,94.0,46.0
Jharkhand,Gumla,23.078532948929148,84.55056787479396,366,1025213,514390,510823,559720,487508,309563,51429,202449,221,531,23,264774,222734,537705,97918,12771,216629,16445,233074,9108,31687,831,7807,242580,82114,45613,23742,2181,179247,7713,99.0,55.0
Jharkhand,Jamtara,23.97873318077801,86.95325080091534,363,791042,404830,386212,426312,326631,550560,164406,4419,520,118,783,214740,111891,464411,135667,11547,165555,20113,185668,5564,49419,808,4959,132014,40613,22995,14802,1632,145904,3164,95.0,54.0
Jharkhand,Latehar,23.72511185840708,84.48298743362837,359,726978,369666,357312,350682,313379,473049,69808,47653,120,128,16,180106,133273,413599,142729,9205,146377,14137,160514,2177,38194,340,6240,121529,46142,23885,13956,1268,127924,3721,97.0,48.0
Jharkhand,Lohardaga,23.488796043165483,84.6605169064748,356,461790,232629,229161,259707,221332,112378,95012,16770,51,33,15,121605,99727,240458,80840,4449,96759,14725,111484,8016,28769,351,2954,84920,38503,21987,13847,1102,87210,2967,99.0,56.0
Jharkhand,Pakur,24.57260428082189,87.69691969178076,353,900422,452661,447761,352881,404584,410127,322963,75865,356,283,222,234012,170572,495838,150028,19471,200588,16587,217175,5316,31414,328,4535,133770,29934,15700,9822,923,175835,2847,99.0,39.0
Jharkhand,Palamu,24.196925968109337,84.20310842824594,358,1939869,1006302,933567,1024563,713175,1683169,238295,6164,734,188,284,473042,240133,1226694,380976,19911,355529,52375,407904,17270,68238,2155,19981,296937,160964,100290,63595,8015,346286,6419,93.0,53.0
Jharkhand,Ranchi,23.184235061391547,85.31781937244203,364,2914253,1494937,1419316,1911433,1142867,1612239,410759,193974,4826,932,2733,743967,398900,1771386,267360,38452,420740,310242,730982,164237,350908,22538,76565,547583,370847,247237,195181,34053,461581,79680,95.0,66.0
Jharkhand,Sahibganj,24.93667989690721,87.68264097938142,352,1150567,589391,561176,483263,490202,628044,398243,83208,198,245,125,295690,194512,660365,206902,43179,223450,37543,260993,11545,34879,591,9563,171416,52248,28087,19832,1285,217420,4553,95.0,42.0
Jharkhand,Simdega,22.608760391198054,84.59193691931536,367,599578,300309,299269,343483,288645,201524,15103,306601,51,753,114,159867,128778,310933,90232,8011,144169,11114,155283,3472,16865,423,4649,130068,47836,24842,13674,1158,111052,4279,100.0,57.0
Karnataka,Bagalkot,16.15860676328503,75.64526070853468,556,1889752,950111,939641,1113412,818081,1634229,219991,3433,443,412,25198,511575,306506,1071671,303243,44797,324799,165858,490657,49345,301389,3745,26297,385986,171505,115095,82319,9726,287059,54451,99.0,59.0
Karnataka,Bangalore Rural,12.936827087794448,77.47369314775169,583,990923,509172,481751,688749,459891,890429,92252,5368,389,272,1045,315499,144392,531032,84108,19457,231052,95410,326462,77454,214253,3729,17066,168165,166677,82235,51015,10389,163974,55447,95.0,70.0
Karnataka,Belgaum,16.16107219152853,74.72329042357275,555,4779661,2423063,2356598,3052032,2105668,4038331,528412,18418,2037,1086,178310,1372422,733246,2673993,649517,60342,962777,356198,1318975,240742,808827,17560,73497,1057297,532584,279583,201884,35104,811672,126662,97.0,64.0
Karnataka,Bellary,15.074377548209377,76.47228471074374,565,2452595,1236954,1215641,1421621,1116880,2103633,320834,14014,1029,284,8044,703258,413622,1335715,406092,22832,371604,251876,623480,114040,440374,9626,40190,529576,203139,121453,89475,14163,366781,102920,98.0,58.0
Karnataka,Bidar,17.950361730769224,77.19459961538459,558,1703300,870665,832635,1042673,702608,1289709,335184,35438,1145,30453,680,459050,243558,1000692,280091,18095,287134,102269,389403,34924,271439,3971,36072,474921,181076,105347,54900,9724,278386,30830,96.0,61.0
Karnataka,Bijapur,16.84015316666667,75.95909166666665,417,255230,128663,126567,86919,134525,245151,1617,2709,68,1649,15,71591,62934,120705,49859,1399,50449,7942,58391,1022,12516,117,1462,22787,7192,6755,3421,305,47682,1846,98.0,34.0
Karnataka,Bijapur,16.84015316666667,75.95909166666665,557,2177331,1111022,1066309,1248268,927722,1786830,369588,2433,558,374,8665,580111,347611,1249609,351600,25379,396449,131041,527490,58890,326594,4987,36571,430477,182756,129109,96990,11722,338321,55083,96.0,57.0
Karnataka,Chikmagalur,13.425288289676422,75.67626502311249,570,1137961,566622,571339,818345,565774,1004553,101235,26000,182,109,4710,357889,207885,572187,126600,8873,311660,80766,392426,74534,238505,4510,18727,257550,177585,96470,72420,15446,216586,41283,101.0,72.0
Karnataka,Chitradurga,14.29102220394736,76.57821957236843,566,1659456,840843,818613,1087392,856587,1520553,128751,3175,322,84,3778,513311,343276,802869,294337,26235,349704,97644,447348,60522,307257,5711,28897,332648,217567,132435,75262,7425,298987,46758,97.0,66.0
Karnataka,Davanagere,14.330414586709884,75.91723841166937,567,1945497,986400,959097,1308540,875207,1658465,265805,5420,307,164,6417,585639,289568,1070290,295873,31438,354680,176011,530691,100812,372671,7320,39416,446793,269748,154781,123863,15449,320621,73448,97.0,67.0
Karnataka,Dharwad,15.343831376975173,75.13831264108359,562,1847023,937206,909817,1301664,784833,1390020,386834,28747,1486,715,29037,543776,241057,1062190,207642,16463,199707,283397,483104,140584,347962,15013,49585,383041,227113,143453,137768,21127,275419,87134,97.0,70.0
Karnataka,Gadag,15.507128256880746,75.64861302752298,561,1064570,537147,527423,700177,495722,907750,143665,3432,231,79,5993,310412,185310,568848,200310,15485,180066,111906,291972,31959,198064,3373,15625,244640,105150,63816,42053,5205,175742,32788,98.0,66.0
Karnataka,Gulbarga,17.070459515951594,76.87503850385033,579,2566326,1301755,1264571,1427368,1087028,2011014,513125,8344,826,9589,4865,680001,407027,1479298,415267,25891,400704,199303,600007,77334,404767,9752,52483,579057,290570,153746,104256,12872,378218,79335,97.0,56.0
Karnataka,Hassan,12.945098749999998,76.11049549999997,574,1776421,883667,892754,1225256,903580,1630814,120011,15611,289,623,5820,560452,343128,872841,165910,16126,496103,132878,628981,90599,400702,4851,23444,354480,292369,147837,103152,14979,363138,57085,101.0,69.0
Karnataka,Haveri,14.737582809224318,75.3961230607966,564,1597668,819128,778540,1085443,730066,1281878,297927,2406,419,68,9834,490731,239335,867602,311263,20217,315076,98488,413564,41517,295937,2456,17819,430529,158442,84357,55310,5681,280133,37221,95.0,68.0
Karnataka,Kodagu,12.39684468085106,75.79336595744688,576,554519,274608,279911,412877,278938,448986,87274,17130,139,126,250,172100,106838,275581,15153,1549,181182,31792,212974,40958,113931,3308,10758,111562,86232,54939,43225,16963,93366,22511,102.0,74.0
Karnataka,Kolar,13.312799881235172,78.01376947743476,581,1536401,776396,760005,1016219,717872,1305431,199873,26722,253,150,2494,454048,263824,818529,201233,24178,326567,151042,477609,72407,309494,5051,27235,289841,225498,107929,71422,9208,261316,60630,98.0,66.0
Karnataka,Koppal,15.651253271028034,76.1617048598131,560,1389920,699926,689994,809085,654766,1218024,161770,4081,296,85,2898,387974,266792,735154,273016,18794,272968,64681,337649,31673,223166,2135,15263,357098,113028,72243,43967,6211,212484,41112,99.0,58.0
Karnataka,Mandya,12.574901806239744,76.81570098522172,573,1805769,905085,900684,1149649,871408,1712695,77801,8506,322,299,3607,575203,296205,934361,216159,17834,458867,103435,562302,80452,391033,3367,20265,309476,308624,157839,102838,8188,370797,47339,100.0,64.0
Karnataka,Mysore,12.248100259403367,76.52881802853437,577,3001127,1511600,1489527,1962180,1314268,2631985,290549,39361,1255,16194,14419,921803,392465,1686859,311002,28162,540596,380386,920982,273706,640868,28397,80086,537686,452412,222230,212541,40420,529209,139947,99.0,65.0
Karnataka,Raichur,16.050795353982295,76.87368606194688,559,1928812,964511,964301,979769,903413,1634062,272022,10394,538,2265,4156,530373,373040,1025399,383526,19095,330446,125402,455848,51443,314547,5200,33903,385673,153346,82082,50463,11104,300223,48296,100.0,51.0
Karnataka,Shimoga,14.063845885634592,75.17882078103197,568,1752753,877415,875338,1263016,780598,1479424,234664,26521,400,120,9234,534487,246111,972155,246464,15087,352444,201662,554106,128087,363835,8791,35207,385978,251095,132138,111753,20781,315329,77868,100.0,72.0
Karnataka,Tumkur,13.592467760074973,77.02297966260545,571,2678980,1350594,1328386,1813391,1354646,2413812,245923,9130,477,187,5067,837512,517134,1324334,352286,54523,685443,204799,890242,116539,562769,7971,41751,500593,423738,213588,143735,14929,532693,93096,98.0,68.0
Karnataka,Udupi,13.450404228534568,74.72009990316337,569,1177361,562131,615230,926429,513241,1009179,96740,65838,232,161,4534,335399,177842,664120,63390,10580,269817,115572,385389,83810,224814,9070,24817,286193,178094,109663,107279,21349,220662,21037,109.0,79.0
Kerala,Alappuzha,9.542602965599087,76.38010796263319,598,2127789,1013142,1114647,1852797,804471,1460447,224545,435056,268,146,74,536738,267733,1323318,71706,35865,331419,392117,723536,274392,507913,28842,71593,334339,573306,274789,198858,42404,496464,24772,110.0,87.0
Kerala,Ernakulam,10.004879301987431,76.26957729035381,595,3282388,1619557,1662831,2855676,1249343,1509557,514397,1248137,860,614,1176,913249,336094,2033045,71391,23976,369694,804997,1174691,499291,771287,88737,184167,446380,702511,389793,429880,135307,689970,88824,103.0,87.0
Kerala,Idukki,9.80480963855423,77.04586641566264,596,1108974,552808,556166,923010,516363,541854,82206,481507,100,189,44,331710,184653,592611,145698,6888,391610,20823,412433,54626,244844,8250,24863,166604,261237,136428,86136,21976,222531,26014,101.0,83.0
Kerala,Kannur,11.941523076923056,75.35209891725934,589,2523003,1181446,1341557,2138434,824116,1509592,742483,262526,424,1118,193,609377,214739,1698887,82988,12875,306288,566191,872479,115356,511167,32653,83940,487016,540383,308670,217203,44108,507341,28563,114.0,85.0
Kerala,Kasaragod,12.33310309912974,75.07768497134369,588,1307375,628613,678762,1037492,462998,729987,486913,87454,151,362,130,325095,137903,844377,38774,24496,251641,166164,417805,74092,237670,10378,32484,268084,238900,122657,76192,19438,240351,22502,108.0,79.0
Kerala,Kollam,8.929388820570157,76.6360775852431,600,2635375,1246968,1388407,2240273,912025,1697635,508500,421598,208,272,63,644362,267663,1723350,92193,21511,523715,401415,925130,263148,630767,31542,83133,406592,595191,307950,233402,58867,597009,51410,111.0,85.0
Kerala,Kottayam,9.643701174068417,76.46059673302705,597,1974551,968289,1006262,1749798,735735,983598,126499,858608,204,358,83,530322,205413,1238816,63052,18523,481967,196194,678161,187213,464039,37849,83999,271496,475724,280720,221350,73096,434540,37276,104.0,89.0
Kerala,Kozhikode,11.392924270557026,75.71158720159153,591,3086293,1470942,1615351,2615443,948981,1734958,1211131,131516,297,235,601,752333,196648,2137312,64198,13312,323793,666543,990336,145558,641660,36791,107602,564392,630818,351267,250117,54277,638772,35910,110.0,85.0
Kerala,Malappuram,10.97329875666072,75.93910775606876,592,4112920,1960328,2152592,3311315,1062424,1135259,2888849,81556,205,179,68,898157,164267,3050496,117405,18423,634543,522586,1157129,139994,730119,27909,119918,770417,933793,392867,203779,59145,719609,47021,110.0,81.0
Kerala,Palakkad,10.784926903553291,76.49980490693744,593,2809934,1359478,1450456,2239492,1042340,1875980,812936,114397,220,238,78,746121,296219,1767594,249949,25035,665899,228442,894341,178386,587583,27162,69440,492864,572412,232109,180540,43458,575878,39417,107.0,80.0
Kerala,Thiruvananthapuram,8.537101759082221,76.88711502868073,601,3301427,1581678,1719749,2785408,1231669,2194057,452915,630573,404,301,76,864101,367568,2069758,94470,28587,559293,609824,1169117,343590,783872,71621,155321,460690,682156,389161,381782,96456,727418,83983,109.0,84.0
Kerala,Thrissur,10.458932647907687,76.12321940836945,594,3121200,1480763,1640437,2678548,1095727,1823442,532839,757484,259,278,62,789511,306216,2025473,73941,27883,336748,715119,1051867,338350,721625,56148,132774,445696,821831,362657,338600,84016,683102,48702,111.0,86.0
Kerala,Wayanad,11.715277464788736,76.07587007042254,590,817420,401684,415736,645585,340077,404460,234185,174453,61,312,1797,228639,111438,477343,101630,4574,266183,11805,277988,23028,149864,4712,15944,144896,184266,87042,51111,13027,166448,12409,103.0,79.0
Madhya Pradesh,Anuppur,23.18184220430107,81.86560000000007,461,749237,379114,370123,436595,346471,686524,21473,2132,606,86,1653,207401,139070,402766,130376,7051,147388,60325,207713,23388,81338,1290,7266,115716,58536,42743,31646,2895,146164,16275,98.0,58.0
Madhya Pradesh,Ashoknagar,24.63098846153845,77.82974493927134,459,845071,443837,401234,469109,315270,778214,40707,635,8009,1352,15094,231829,83441,529801,122387,10559,169606,37135,206741,15886,84720,619,6016,117053,51499,29551,22791,2373,162759,5484,90.0,56.0
Madhya Pradesh,Balaghat,21.80020720640569,80.42170053380796,457,1701698,842178,859520,1147623,893014,1519384,38542,5295,1050,72162,4778,488610,404404,808684,459796,19245,400074,70793,470867,27283,277927,1712,13306,312640,168635,126308,74213,4045,366925,16421,102.0,67.0
Madhya Pradesh,Barwani,21.702135714285724,74.91004719710673,441,1385881,699340,686541,549926,653897,1318869,58222,2967,2361,416,2289,365928,287969,731984,267196,7451,250358,48912,299270,30115,181139,1158,8516,137116,59100,42649,30754,3102,224957,12865,98.0,40.0
Madhya Pradesh,Betul,21.964626315789477,77.7873428189117,447,1575362,799236,776126,939769,786980,1505745,37590,3271,1078,9651,3759,453887,333093,788382,358157,11849,318945,87704,406649,45270,230974,2109,13755,232532,140402,105696,82761,5740,284681,23266,97.0,60.0
Madhya Pradesh,Bhind,26.35951126187245,78.7618324287653,420,1703005,926843,776162,1094917,520768,1595400,66776,973,4047,12215,19950,455775,64993,1182237,158266,9838,271211,88385,359596,32268,107819,1166,14368,261162,140743,96011,50222,4463,288622,7464,84.0,64.0
Madhya Pradesh,Bhopal,23.480726143790854,77.39246623093679,444,2371061,1236130,1134931,1660690,867457,1755861,525434,23432,10789,21688,25950,644960,222497,1503604,105195,24732,118893,581826,700719,281442,452912,40788,94729,303171,211371,178165,266618,60383,357177,107036,92.0,70.0
Madhya Pradesh,Burhanpur,21.364567254408065,76.24460478589425,467,757847,388504,369343,408679,328339,552526,180840,1199,1074,19883,1884,211925,116414,429508,156295,8077,115979,62861,178840,40478,112420,986,5058,119468,57058,42618,28237,2142,124087,12487,95.0,54.0
Madhya Pradesh,Chhatarpur,24.813637376460004,79.56449299191374,425,1762375,936121,826254,943033,751797,1676918,70351,1980,968,250,10409,481518,270279,1010578,238364,26390,375869,95048,470917,36506,176056,1880,15567,236054,112961,77787,59704,6206,354948,12483,88.0,54.0
Madhya Pradesh,Chhindwara,22.227966971713823,78.76413136439254,455,2090922,1064468,1026454,1294198,957984,1923920,100692,4893,2258,24471,7830,582263,375721,1132938,422668,14585,413142,140802,553944,73284,344875,3588,20034,336391,215098,167946,112383,8235,376356,34728,96.0,62.0
Madhya Pradesh,Damoh,23.76624407960196,79.47049303482588,428,1264219,661873,602346,747715,574595,1186420,47966,1681,1096,119,25005,367711,206884,689624,250165,67383,303387,66514,369901,23270,187731,1432,10504,217296,95032,64414,41158,3031,283661,10655,91.0,59.0
Madhya Pradesh,Datia,25.90226439560441,78.63916571428574,422,786754,420157,366597,491445,321160,747693,28483,683,490,7923,453,225662,95498,465594,93744,6839,160453,43401,203854,17555,97696,616,5251,131372,73398,48978,34853,2897,153252,4235,87.0,62.0
Madhya Pradesh,Dewas,22.7851110021322,76.46088805970157,437,1563715,805359,758356,925369,742676,1376591,174259,2355,2330,382,6497,451501,291175,821039,310606,11816,274995,101014,376009,59521,270457,3518,16523,225380,125772,94403,55383,9017,278354,18785,94.0,59.0
Madhya Pradesh,Dhar,22.572681718963157,75.1105620736698,438,2185793,1112725,1073068,1077338,1027974,2051219,116202,2261,1607,328,12199,597079,430895,1157819,437437,15830,412348,103364,515712,75637,349639,2388,18626,244058,134279,99882,66721,8080,378227,33109,96.0,49.0
Madhya Pradesh,Dindori,22.83738437047757,81.04332966714911,453,704524,351913,352611,378714,389925,605435,6736,4238,260,61,687,203383,186542,314599,190962,7958,218021,9774,227795,4576,62372,554,6447,113875,49277,31104,15179,1291,162879,4301,100.0,54.0
Madhya Pradesh,Guna,24.49043927178156,77.2235895968791,458,1241519,649362,592157,653980,514897,1172248,49203,1208,3271,529,13474,335454,179443,726622,175615,12079,212765,72320,285085,34184,144248,2482,11740,157141,79924,50724,42147,5968,224082,13478,91.0,53.0
Madhya Pradesh,Gwalior,26.04074441964285,78.12782433035713,421,2032036,1090327,941709,1357210,685311,1835299,141735,4119,24790,4361,18058,548820,136491,1346725,120348,22592,172720,272172,444892,165061,306859,15779,46454,235924,193082,166719,193947,21313,316586,45158,86.0,67.0
Madhya Pradesh,Harda,22.227659781121783,77.07022571819435,448,570465,294838,275627,352550,230979,527462,38640,683,676,93,1573,156852,74127,339486,101256,6459,112714,31845,144559,22174,95066,986,5376,87733,46556,31939,27126,3556,99039,7072,93.0,62.0
Madhya Pradesh,Hoshangabad,22.595268801996703,78.02168094841929,449,1241350,648725,592625,810644,478082,1175203,52269,4453,3127,1550,3888,345435,132647,763268,181967,9982,209650,105746,315396,61415,198076,2871,14456,183156,119682,89589,84769,7335,217340,25354,91.0,65.0
Madhya Pradesh,Indore,22.680265752128648,75.9133801324502,439,3276697,1699627,1577070,2309130,1268195,2728225,415142,18523,25696,11496,71667,939055,329140,2008502,185528,43584,200371,587947,788318,417170,593576,48691,111478,472233,362209,300076,382658,64865,457287,134832,93.0,70.0
Madhya Pradesh,Jabalpur,23.18525572327043,79.98328754716981,451,2463289,1277278,1186011,1756468,1005624,2159065,203652,23142,13256,4320,33728,705970,299654,1457665,283636,69946,272284,352477,624761,192581,452023,20443,58601,352284,268333,222987,235072,26487,434882,64448,93.0,71.0
Madhya Pradesh,Jhabua,22.419578015397768,74.40921616766468,464,1025048,515023,510025,352081,515121,960925,15733,38423,141,65,8871,265489,249632,509927,115649,5132,211080,24713,235793,16683,125411,744,5591,79781,38236,28990,20240,2215,197972,7149,99.0,34.0
Madhya Pradesh,Katni,23.724416229116937,80.33819665871127,450,1292042,662013,630029,790773,543874,1240650,37232,3158,1167,157,5342,348410,195464,748168,223902,31261,276151,72880,349031,38086,172416,2179,13094,207366,112242,80935,53578,3958,268593,16045,95.0,61.0
Madhya Pradesh,Mandla,22.70348712446353,80.38600543633753,454,1054905,525272,529633,604962,559649,849518,16558,12450,436,297,1789,300235,259414,495256,318909,9453,279674,37258,316932,18413,143803,912,9042,170994,82166,58066,35476,2246,232935,8554,101.0,57.0
Madhya Pradesh,Mandsaur,24.19278764044944,75.43588667736759,433,1340411,682851,657560,834591,679723,1192588,125548,1120,849,242,19029,397714,282009,660688,266350,8556,302287,81832,384119,47723,239885,2324,12507,217234,109751,77219,52546,5435,261639,18028,96.0,62.0
Madhya Pradesh,Morena,26.37313504531724,77.88447341389724,419,1965970,1068417,897553,1179685,675993,1875495,76159,1092,557,3234,6681,525329,150664,1289977,148222,16354,319298,95288,414586,45113,131486,1781,20172,285682,170254,115790,71005,5829,346829,12915,84.0,60.0
Madhya Pradesh,Neemuch,24.70311893333336,75.06608186666664,432,826067,422653,403414,508834,418682,741288,67324,1508,1110,224,14165,245708,172974,407385,136330,4020,174235,67962,242197,34666,145258,1945,8342,127167,69134,53465,42343,4498,157683,14613,95.0,62.0
Madhya Pradesh,Panna,24.451325840092657,80.21133001158752,426,1016520,533480,483040,552559,431998,974748,35214,418,186,37,4734,275375,156623,584522,198847,12201,256744,32179,288923,13285,76097,653,8501,134936,70359,47903,29795,2219,226597,5039,91.0,54.0
Madhya Pradesh,Raisen,23.292518206521724,78.16305495923909,446,1331597,700358,631239,820220,517838,1195235,120331,1725,2262,253,10637,370366,147472,813759,228151,17316,251272,74441,325713,34499,194373,1141,9931,210402,117908,69419,48384,6017,248660,17923,90.0,62.0
Madhya Pradesh,Rajgarh,23.785499026425583,76.66431223922116,442,1545814,790212,755602,804245,745603,1433879,106928,1243,460,121,1599,429768,315835,800211,330820,12123,331894,69823,401717,30688,231130,1611,12718,174381,96386,72316,51499,4185,324899,11977,96.0,52.0
Madhya Pradesh,Ratlam,23.503562290502792,75.14895782122909,434,1455069,738241,716828,825880,690980,1267043,151071,3996,1353,175,29353,411446,279534,764089,305946,11928,266716,107151,373867,67830,213825,3644,14905,194131,111461,86507,67192,5757,265828,21958,97.0,57.0
Madhya Pradesh,Rewa,24.861184625158856,81.57572465057183,430,2365106,1225100,1140006,1441757,991946,2268838,85414,1964,832,986,655,617184,374762,1373160,463506,50878,523910,94489,618399,45180,251132,3406,31194,330131,206274,180635,122371,11833,524701,11182,93.0,61.0
Madhya Pradesh,Sagar,23.800318709677374,78.71940357771273,427,2378458,1256257,1122201,1545719,1006035,2198297,103480,5580,4146,991,62992,682077,323958,1372423,378560,140458,448408,165507,613915,68482,366494,4546,24811,426916,214137,137899,116753,11291,466797,29071,89.0,65.0
Madhya Pradesh,Satna,24.62777621776502,80.75547048710598,429,2228935,1157495,1071440,1371781,911349,2158623,59471,2228,1163,364,3135,590487,320862,1317586,371584,46056,461831,114173,576004,55196,294702,3754,22751,334635,197373,148091,105499,9401,455270,16995,93.0,62.0
Madhya Pradesh,Sehore,22.9297199679658,77.06780202883085,445,1311332,683743,627589,780362,586087,1163607,137980,1404,640,357,6232,364559,221528,725245,227026,9917,270427,59220,329647,30868,212138,1566,11166,179388,120687,77541,50655,6041,235670,11139,92.0,60.0
Madhya Pradesh,Seoni,22.33230487804874,79.66053863928111,456,1379131,695879,683252,864194,684434,1145052,79739,1857,360,7288,4982,394660,289774,694697,376404,11957,335045,47542,382587,26893,228695,1182,10417,241327,116124,84398,55984,4048,284384,14621,98.0,63.0
Madhya Pradesh,Shahdol,23.44859864559819,81.4596831828442,460,1066063,540021,526042,604194,493057,997073,42426,2372,912,268,1737,292402,200655,573006,258991,14329,233594,57846,291440,24255,113184,1733,10817,154282,80402,60915,46513,3819,232450,9838,97.0,57.0
Madhya Pradesh,Shajapur,23.566620317220547,76.33555181268885,436,1512681,780520,732161,894612,717871,1321003,174724,815,631,179,13755,431857,286014,794810,303157,8809,312611,73997,386608,32204,232735,1382,10797,239081,111366,75967,48671,4200,281671,12132,94.0,59.0
Madhya Pradesh,Sheopur,25.78014810996563,77.16911116838484,418,687861,361784,326077,328025,277455,638702,41396,230,6387,201,379,183788,93667,410406,115261,4166,150146,26376,176522,11701,74770,273,5393,70840,37072,24732,17091,1634,138428,5214,90.0,48.0
Madhya Pradesh,Shivpuri,25.37802451874367,77.74861600810549,423,1726050,919795,806255,900846,759281,1648749,51200,1117,7151,3421,12171,481001,278280,966769,220440,13079,367859,66759,434618,35706,148128,1852,15304,214162,84684,58509,44812,5417,341253,11678,88.0,52.0
Madhya Pradesh,Sidhi,24.17547189952905,82.1053783359498,462,1127033,575912,551121,600785,461760,1077545,34419,511,128,92,93,284289,177471,665273,262030,15654,250953,25916,276869,9569,102228,837,10790,168224,80312,60845,33067,3320,231540,5173,96.0,53.0
Madhya Pradesh,Tikamgarh,25.14099852104666,78.89357064846428,424,1445166,760355,684811,747940,655318,1383475,44143,588,251,109,15569,402776,252542,789848,223852,15622,322772,60220,382992,21489,132725,1090,10899,188694,78053,58245,35034,4139,292003,5586,90.0,52.0
Madhya Pradesh,Ujjain,23.319288862745065,75.80383717647058,435,1986864,1016289,970575,1240990,897442,1718204,233133,4659,3241,945,24622,569425,328017,1089422,302003,19678,300765,188684,489449,123526,323379,7501,27733,280030,159263,119586,111290,12167,338261,36739,96.0,62.0
Madhya Pradesh,Umaria,23.59601063063061,80.90879477477475,431,644758,330674,314084,356672,289691,620515,15966,667,190,70,220,175698,113993,355067,145690,8767,138100,29966,168066,12713,67975,839,6360,94011,43418,27216,18144,1873,134416,4877,95.0,55.0
Madhya Pradesh,Vidisha,23.82838307984792,77.9013507604563,443,1458875,769568,689307,862918,550402,1287391,149548,1313,914,295,18490,401583,148819,908473,228308,12408,292579,83830,376409,41617,181510,1926,12888,214603,104007,65581,59814,5682,275519,15915,90.0,59.0
Maharashtra,Akola,20.746310479041902,77.12122320359276,501,1813906,932334,881572,1411281,768154,1107809,357253,4483,1504,328033,10205,520362,247792,1045752,388521,9660,308158,196077,504235,107463,314490,6163,24232,328367,291391,205723,112574,9037,339748,37265,95.0,78.0
Maharashtra,Amravati,21.16520991810736,77.67583503184723,503,2888445,1480768,1407677,2251875,1236322,2055177,421410,7223,2242,383891,11360,837577,398745,1652123,667943,20998,508921,272894,781815,175917,512492,9438,36185,468853,525116,346876,203273,15285,569476,42996,95.0,78.0
Maharashtra,Aurangabad,20.0979228832952,75.32072196796334,235,2540073,1318684,1221389,1466002,837770,2291133,237353,2218,295,334,775,599157,238613,1702303,426096,40652,428291,49006,477297,24106,44456,2362,31168,482199,253142,136783,91371,7145,377134,6754,93.0,58.0
Maharashtra,Aurangabad,20.0979228832952,75.32072196796334,515,3701282,1924469,1776813,2503837,1575079,2545438,786677,15991,5142,309093,30981,1015864,559215,2126203,396630,28033,551789,427343,979132,246324,589477,23258,69937,686271,537936,310762,253253,33322,580691,138210,92.0,68.0
Maharashtra,Bhandara,21.211792649727748,80.10950199637024,506,1200334,605520,594814,899860,597305,1009352,26502,2145,831,154458,1017,345054,252251,603029,312183,17169,283843,72575,356418,55948,227025,2932,13165,187870,204435,153749,67061,5184,243836,26370,98.0,75.0
Maharashtra,Bid,18.952353340080982,75.69319706477731,523,2585049,1349106,1235943,1718507,1255548,2174672,320395,2097,824,68482,8719,727819,527729,1329501,373566,21093,563114,135457,698571,82098,402052,5614,29198,436446,316758,206530,129996,12836,492304,39323,92.0,66.0
Maharashtra,Buldana,20.56680611183355,76.39017880364096,500,2586258,1337560,1248698,1879874,1219641,1845424,354236,3531,1668,364229,12242,734024,485617,1366617,603227,13770,575405,152787,728192,103898,423036,4767,24877,457067,406379,228266,113783,10034,496630,31267,93.0,73.0
Maharashtra,Chandrapur,20.095609090909075,79.31556380471388,509,2204307,1123834,1080473,1578615,1058172,1780085,92297,10701,5251,286734,3861,648565,409607,1146135,473983,21346,451324,233331,684655,172661,418666,8239,31419,316192,351610,241179,126488,12746,440367,67694,96.0,72.0
Maharashtra,Dhule,21.274018690400517,74.58719071837263,498,2050862,1054031,996831,1293916,936370,1825460,187901,3653,1422,13405,12818,570448,365922,1114492,429536,20646,382777,146013,528790,126138,315332,6065,27139,323641,290656,182739,114931,10912,344482,54960,95.0,63.0
Maharashtra,Gondiya,21.225008411214997,80.17522698598128,507,1322507,661554,660953,1004243,665419,1153861,26157,1827,2160,125282,1568,383151,282268,657088,281414,32525,319702,66813,386515,38044,239981,2866,13595,237888,225595,159570,57923,5074,266154,17945,100.0,76.0
Maharashtra,Hingoli,19.59525302245251,77.09239412780653,512,1177345,606294,571051,790743,569182,863199,127552,992,643,176679,5278,330903,238279,608163,226483,8268,242456,41913,284369,27700,159114,1221,9676,266649,136075,74544,38698,3833,209663,13034,94.0,67.0
Maharashtra,Jalgaon,20.8828943415638,75.55140421810695,499,4229917,2197365,2032552,2891882,1863571,3457615,560261,7091,3091,143865,27404,1186472,677099,2366346,937174,38930,796223,373565,1169788,350029,720791,14297,56775,735730,627198,375643,229987,19560,724904,125375,92.0,68.0
Maharashtra,Jalna,19.984612534818933,75.98473607242339,514,1959046,1011473,947573,1195523,930886,1504641,274221,12542,1629,152540,9619,545030,385856,1028160,300937,16705,404746,98084,502830,60219,288895,3791,17236,422207,225331,120715,64060,8400,348751,29927,94.0,61.0
Maharashtra,Kolhapur,16.44881301587301,74.12897150793648,530,3876001,1980658,1895343,2825845,1704054,3379906,286558,15573,1570,29766,154882,1125204,578850,2171947,266028,59932,796496,382818,1179314,340318,770005,22269,71879,622362,698604,395234,335413,49081,699588,106291,96.0,73.0
Maharashtra,Latur,18.348687268993856,76.75812607802874,524,2454196,1273140,1181056,1650672,1046857,2006984,367664,2387,935,66535,6387,670018,376839,1407339,416578,17663,428616,157016,585632,96018,381722,6217,29758,423711,380344,224998,153256,13150,421140,44074,93.0,67.0
Maharashtra,Nagpur,21.196556862745105,79.02166176470584,505,4653570,2384975,2268595,3673808,1868560,3492202,390974,34667,20469,668050,24528,1334211,534349,2785010,423587,52419,430844,877522,1308366,599780,917626,57964,135750,666693,790443,542228,493236,71592,770480,187414,95.0,79.0
Maharashtra,Nanded,19.209316983017,77.6829048951049,511,3361292,1730075,1631217,2189425,1493953,2501741,471951,3902,13540,354189,5049,925232,568721,1867339,632395,29158,591119,230563,821682,116284,488748,7548,43055,691348,416761,255650,156225,12341,579750,61234,94.0,65.0
Maharashtra,Nandurbar,21.523175625248147,74.32638757443429,497,1648295,833170,815125,906509,792065,1521618,96182,8467,685,4969,6191,442898,349167,856230,438176,14599,333440,71572,405012,54335,186202,2579,17047,218718,160961,113019,58461,6135,292483,21845,98.0,55.0
Maharashtra,Nashik,20.266912871287143,74.03824168316828,516,6107187,3157186,2950001,4345366,2763328,5237009,693052,23946,8912,94783,38212,1746286,1017042,3343859,730228,56132,904661,764271,1668932,536781,904710,45039,138887,1038955,830070,485052,373100,79590,934281,196514,93.0,71.0
Maharashtra,Osmanabad,18.19459456066944,75.99495575313809,525,1657576,861535,796041,1137810,773916,1437623,178925,942,340,28216,4530,473795,300121,883660,299525,19831,367158,77832,444990,49180,240042,3209,18183,300965,260772,139479,96847,7974,316237,22964,92.0,69.0
Maharashtra,Parbhani,19.31032425249168,76.70163338870431,513,1836086,942870,893216,1157814,822797,1328385,306364,2081,1371,187899,6238,501422,321375,1013289,317806,13210,293480,133759,427239,59272,272486,3982,21196,396713,229103,116041,81333,6973,325984,25840,95.0,63.0
Maharashtra,Pune,18.51696171428573,74.12922881632647,521,9429408,4924105,4505303,7171723,4048993,8090254,673704,134192,27090,340404,127786,2809816,1239177,5380415,414461,105711,1165718,2056739,3222457,1410448,1925019,235018,490260,1234549,1414563,867256,1086650,273326,1382496,612584,91.0,76.0
Maharashtra,Raigarh,18.453257637845976,73.0090609418579,403,1493984,750278,743706,951639,690167,1422986,17332,47653,2117,781,409,429211,260956,803817,323788,9959,354278,66638,420916,27771,297308,3342,13857,260661,130700,93340,66358,5979,331942,19805,99.0,64.0
Maharashtra,Raigarh,18.453257637845976,73.0090609418579,520,2634200,1344345,1289855,1939994,1072969,2239370,227465,17452,7477,121791,12260,753843,319126,1561231,191182,32919,581868,377160,959028,328277,547206,38570,96301,407662,441072,221410,204507,43536,463109,119513,96.0,74.0
Maharashtra,Ratnagiri,17.210195070127703,73.25725893866404,528,1615069,761121,853948,1199392,714076,1307211,187197,1990,230,113467,3347,407008,307068,900993,153117,17230,538538,100824,639362,100860,367352,7752,31062,378554,247257,111600,65700,15191,346267,37274,112.0,74.0
Maharashtra,Sangli,17.154930181086502,74.70713822937628,531,2822143,1435728,1386415,2049467,1215104,2440312,239607,9098,1260,38210,87453,800214,414890,1607039,290693,40824,626872,226801,853673,227034,485126,13212,49056,507318,453404,244804,214003,29515,498771,67342,97.0,73.0
Maharashtra,Satara,17.6737908974359,74.18052064102558,527,3003741,1510842,1492899,2225694,1354947,2691952,146970,4408,1182,141315,12810,844805,510142,1648794,297241,39772,774522,200949,975471,271186,562653,14093,57423,495822,556706,299993,243457,36046,550485,67211,99.0,74.0
Maharashtra,Sindhudurg,16.170948049777163,73.51329008172343,529,849651,417332,432319,666067,347178,780384,26264,15471,219,24762,1046,229676,117502,502473,81816,9679,295847,44989,340836,42540,194228,3517,15721,165284,175070,89023,48418,9264,181960,17110,104.0,78.0
Maharashtra,Solapur,17.837357937584812,75.42394823609216,526,4317756,2227852,2089904,2910676,1898395,3795424,441254,9882,1279,35497,28134,1206933,691462,2419361,558334,71106,779929,376302,1156231,248255,595560,15145,59296,788150,643327,328020,236302,28219,723697,97376,94.0,67.0
Maharashtra,Thane,19.698767747440264,72.79882742564581,517,11060148,5865078,5195070,8227161,4492767,8716055,1355630,280700,39149,449617,172052,3363123,1129644,6567381,418004,124461,713994,2904157,3618151,1610460,2231800,256170,551643,1530916,1751284,1080597,961719,172210,1758319,632143,89.0,74.0
Maharashtra,Wardha,20.80743024390242,78.57259105691062,504,1300774,668385,632389,1019458,608235,1057096,53854,2696,2147,175417,5663,392316,215919,692539,282170,13785,268486,120218,388704,114029,266155,4313,16260,186781,225208,158055,93772,6970,263170,28598,95.0,78.0
Maharashtra,Washim,20.282282394366213,77.25502394366208,502,1197160,620302,576858,869917,569792,859949,142672,1707,518,179330,8476,340353,229439,627368,310195,7122,274925,55921,330846,36840,196022,1875,10757,238985,162762,116032,47865,3623,240347,10854,93.0,73.0
Maharashtra,Yavatmal,20.04258346738159,78.05326371760479,510,2772348,1419965,1352383,2022574,1355999,2251401,239236,4567,1596,249874,11422,815475,540524,1416349,739718,17899,629243,168889,798132,134500,446516,6094,29917,562739,389924,245819,123074,12132,575266,39344,95.0,73.0
Manipur,Bishnupur,24.50712111801243,93.8246236024845,275,237399,118782,118617,156333,109937,175102,18691,4264,56,76,16,62807,47130,127462,15109,11567,34977,21172,56149,11393,34364,676,3447,36011,31775,20077,20074,2009,43516,784,100.0,66.0
Manipur,Chandel,24.2635812987013,94.09443844155844,280,144182,74579,69603,90302,76238,10810,3086,129049,136,400,59,42615,33623,67944,8315,3040,30377,3783,34160,1424,18764,184,1782,28163,18971,12213,8105,908,27448,1411,93.0,63.0
Manipur,Churachandpur,24.30309718875504,93.38671506024085,274,274143,138820,135323,195935,122655,12034,2886,254979,152,495,87,70594,52061,151488,8282,5067,52972,4853,57825,13371,29894,837,4496,67907,38567,23284,14523,1807,42769,6655,97.0,71.0
Manipur,Senapati,25.08465586034914,94.03366234413956,272,479148,247323,231825,264477,233622,43833,1649,426819,140,2409,53,124143,109479,245526,30369,4978,38008,1826,39834,2430,22798,256,2170,81735,62033,40438,24940,827,33051,1017,94.0,55.0
Manipur,Tamenglong,24.98312942238265,93.49450740072204,273,140651,72371,68280,85006,70675,2995,589,134760,59,425,57,37237,33438,69976,1924,1710,23982,4119,28101,1229,11541,125,1362,28461,17867,11645,7102,495,23804,352,94.0,60.0
Manipur,Thoubal,24.545392553191498,93.97959893617023,276,422168,210845,211323,269304,195319,267146,107323,4322,106,114,24,109377,85942,226849,33106,21017,65961,38302,104263,15994,49507,880,5110,69738,55803,37899,28550,3141,83390,873,100.0,64.0
Manipur,Ukhrul,25.05900314960629,94.44129566929138,279,183998,94718,89280,129829,87929,7553,1115,174112,108,635,70,46533,41396,96069,3852,2233,36084,5806,41890,1659,14026,276,2437,29382,31734,22729,15636,1107,32455,2313,94.0,71.0
Meghalaya,East Garo Hills,25.82728228228228,90.64684924924916,294,317917,161223,156694,192147,126073,17272,3359,289708,56,1004,38,72262,53811,191844,19246,2475,62698,11518,74216,1839,24550,288,2368,70679,31328,9473,2484,1167,54960,2057,97.0,60.0
Meghalaya,East Khasi Hills,25.303763888888884,91.75922519841272,298,825922,410749,415173,578030,326786,144935,14185,543394,2495,3111,303,204303,122483,499136,40889,2966,106248,108843,215091,41496,135941,5032,19306,163729,94579,58836,61639,15048,93999,59647,101.0,70.0
Meghalaya,Jaintia Hills,25.33959557069844,92.37608160136298,299,395124,196285,198839,187527,154180,12456,1646,271596,34,284,45,88839,65341,240944,35766,2004,76546,7171,83717,7150,41677,510,4333,61526,26748,13544,8039,4790,57268,6500,101.0,47.0
Meghalaya,South Garo Hills,25.240568578553614,90.64560349127176,295,142334,73170,69164,82062,53069,7036,1050,132984,27,332,10,32826,20243,89265,5565,1249,35930,3713,39643,482,10940,179,1625,28921,13858,3998,826,695,22964,873,95.0,58.0
Meghalaya,West Garo Hills,25.495285185185185,90.03709947089942,293,643291,324159,319132,358702,255693,122936,106788,389956,209,3392,144,151914,103779,387598,39725,7643,139351,18594,157945,10006,51301,1630,8872,129178,70941,29404,10856,3589,113504,6163,98.0,56.0
Meghalaya,West Khasi Hills,25.500889926739926,91.25364542124538,296,383461,193715,189746,230678,163345,6498,1533,366881,58,1313,38,89694,73651,220116,37184,2475,74832,12299,87131,476,32873,149,2462,78208,28417,12295,6450,1683,59459,3555,98.0,60.0
Mizoram,Aizawl,23.90781335453101,92.85359459459472,283,400309,199270,201039,340595,174636,13249,5264,379134,105,1570,76,104643,69993,225673,11434,3360,20570,80341,100911,64710,79804,4019,21093,68214,78752,37701,31310,9581,40704,38953,101.0,85.0
Mizoram,Champhai,23.54166580976866,93.24221799485862,284,125745,63388,62357,100802,60342,1075,699,123446,9,151,45,34129,26213,65403,5823,980,18395,12717,31112,9115,23948,186,2263,31359,16259,4956,4087,1237,19196,6021,98.0,80.0
Mizoram,Kolasib,24.2020004347826,92.73470391304348,282,83955,42918,41037,65895,36672,4000,4426,75210,16,108,2,22733,13939,47283,5921,585,9669,12507,22176,8787,14853,367,1986,18046,9849,3473,2530,867,11439,5233,96.0,78.0
Mizoram,Lawngtlai,22.36102843137253,92.66964156862753,287,117894,60599,57295,62861,45566,1668,522,63892,52,51549,122,28517,17049,72328,3153,613,21993,5273,27266,5213,9283,162,1329,21114,10538,3763,2515,631,19088,3249,95.0,53.0
Mizoram,Lunglei,23.007717036172675,92.63512555425892,286,161428,82891,78537,121122,78292,5231,1290,127124,74,27543,93,46230,32062,83136,10662,813,21479,17315,38794,14037,26394,482,3725,33313,19918,8503,5509,1982,24286,7832,95.0,75.0
Mizoram,Mamit,23.73852942502819,92.4330803833147,281,86364,44828,41536,60191,39339,2989,1782,69104,13,12328,25,24016,15323,47025,2553,262,16726,4129,20855,4010,12158,90,1073,19711,10756,3180,1771,565,13786,2921,93.0,70.0
Mizoram,Saiha,22.35744801061008,93.02827931034489,288,56574,28594,27980,42233,19461,933,514,54977,11,102,4,12211,7250,37113,957,313,7043,5784,12827,4783,7400,168,1194,14151,7269,3628,2204,507,7767,2970,98.0,75.0
Mizoram,Serchhip,23.263864705882344,92.914158496732,285,64937,32851,32086,54476,32397,991,335,63444,6,60,9,18261,14136,32540,1284,926,7472,8018,15490,5511,12315,131,987,14985,9062,2915,2128,702,9272,3113,98.0,84.0
Nagaland,Dimapur,25.814176811594223,93.75074057971014,265,378811,197394,181417,278037,151350,108900,31212,234239,566,1270,2148,99645,51705,227461,8990,5073,49116,62853,111969,42378,71413,3303,12077,61815,44343,26712,27532,10008,36263,33254,92.0,73.0
Nagaland,Kohima,25.60311428571428,93.78600657596373,270,267988,138966,129022,197489,114825,25496,4384,234955,998,1519,80,68140,46685,153163,2198,2072,31845,44255,76100,20712,50724,1928,7982,46756,30518,19855,23439,8428,30993,19010,93.0,74.0
Nagaland,Mokokchung,26.478911764705888,94.522426006192,262,194622,101092,93530,159494,100067,9840,2057,181847,78,442,66,57084,42983,94555,9166,3798,37536,17742,55278,7236,40154,537,2728,43483,27425,13077,10299,3805,31404,8870,93.0,82.0
Nagaland,Mon,26.69207374301676,95.03072988826828,261,250260,131753,118507,119626,147654,8102,3444,236494,84,1256,314,79425,68229,102606,10836,1608,43607,7415,51022,1080,14398,178,2844,46055,7628,3565,1772,1007,36498,3623,90.0,48.0
Nagaland,Phek,25.63272986577182,94.56814563758392,266,163418,83743,79675,105893,80277,3563,950,158224,31,350,17,41556,38721,83141,3159,1275,38903,7295,46198,2073,36182,170,1558,32722,12785,7268,5926,1780,30943,4878,95.0,65.0
Nagaland,Tuensang,26.21104453280316,94.85809880715708,267,196596,101933,94663,117511,98154,2979,1052,191864,27,572,5,52931,45223,98442,3913,1104,40690,9451,50141,773,24998,155,2251,40900,15013,6008,2760,1063,33861,4402,93.0,60.0
Nagaland,Wokha,26.202611551155112,94.1990815181518,264,166343,84505,81838,128208,78412,5605,2043,158236,34,318,8,42096,36316,87931,6438,1965,38499,8170,46669,3228,25268,198,1757,37024,18746,10223,8030,1592,28312,3203,97.0,77.0
Nagaland,Zunheboto,26.028178205128206,94.50026666666668,263,140757,71217,69540,102881,79466,2580,772,136995,39,286,6,41178,38288,61291,11955,2025,31267,6044,37311,1433,28846,261,2008,30889,17282,8821,5560,2258,25713,3712,98.0,73.0
Orissa,Baleshwar,21.48570932311624,87.08085828011933,377,2320529,1185787,1134742,1621232,932707,2197709,94254,6434,237,111,201,684020,248687,1387822,358214,28736,601154,82440,683594,36478,296834,7370,28289,470502,267354,112392,105962,8591,502635,15734,96.0,70.0
Orissa,Bhadrak,20.95262735257214,86.81496204516931,378,1506337,760260,746077,1094140,468599,1398543,104202,745,169,81,111,409559,59040,1037738,151377,14451,373862,54244,428106,15864,164636,2637,15609,391081,177013,71815,67536,3670,296688,8307,98.0,73.0
Orissa,Cuttack,20.407640646029623,85.7776810228802,381,2624470,1352760,1271710,2011469,936365,2457729,141263,11985,1026,6276,1180,761876,174489,1688105,248298,51809,579529,210768,790297,103177,349587,15046,40589,545514,328319,159456,181601,15494,494043,58873,94.0,77.0
Orissa,Dhenkanal,20.79887159353349,85.53226836027711,383,1192811,612593,580218,829910,435533,1185542,4805,727,124,366,39,340552,94981,757278,163636,17312,315390,36979,352369,19846,117172,1810,10600,238599,132002,53162,43064,3533,263641,9666,95.0,70.0
Orissa,Gajapati,19.121080882352945,84.14015091911759,389,577817,282882,294935,262537,293933,353160,1556,219482,53,2180,66,155907,138026,283884,153199,5370,152095,23050,175145,12035,63112,635,5523,76419,36977,17084,12556,656,119272,7161,104.0,45.0
Orissa,Ganjam,19.2632617564534,84.80297710437702,388,3529031,1779218,1749813,2210050,1501772,3486059,13315,23975,590,174,170,990027,511745,2027259,565448,56274,795476,219918,1015394,120191,405298,9049,41059,767140,297490,121151,97147,9066,672524,74534,98.0,63.0
Orissa,Jharsuguda,21.827058566978184,83.93581682242987,371,579505,296690,282815,405879,247707,553587,12783,10462,1441,80,70,172018,75689,331798,56809,15836,103224,73962,177186,18950,81433,2498,7555,101541,70928,32909,22010,3966,107762,21243,95.0,70.0
Orissa,Kalahandi,19.784253092783523,83.1124043814433,395,1576869,787101,789768,802036,751930,1555367,4975,11160,796,175,1225,447290,304640,824939,436733,18453,456336,38412,494748,17610,91171,1953,12622,225468,94044,40383,27385,3547,382053,10876,100.0,51.0
Orissa,Kandhamal,20.092878624813142,84.02216352765326,390,733110,359945,373165,399786,355349,580300,2138,148895,82,290,47,193515,161834,377761,162932,11946,218446,24489,242935,6938,28736,768,6609,145604,48856,21351,14962,1278,156795,9613,104.0,55.0
Orissa,Kendrapara,20.606319815982264,86.83763247572003,379,1440361,717814,722547,1089265,466890,1386792,50247,1423,169,62,52,386382,80508,973471,143864,16544,414749,23494,438243,15879,173107,1628,11836,357621,203472,76449,75926,2686,318778,5112,101.0,76.0
Orissa,Khordha,20.054162322274863,85.52234834123229,386,2251673,1167137,1084536,1749936,792193,2147632,84060,12527,1264,475,476,645880,146313,1459480,116274,39471,331834,356895,688729,160277,349860,35701,75588,445785,295099,177974,247498,33514,361364,102422,93.0,78.0
Orissa,Koraput,18.82627794779476,82.81278469846964,398,1379647,678809,700838,568090,693406,1294151,8850,68550,518,219,491,384053,309353,686241,290626,14416,381789,78339,460128,39631,85766,3988,17294,158653,60589,32257,29000,6922,294487,30413,103.0,41.0
Orissa,Malkangiri,18.25227930367506,81.98293636363628,399,613192,303624,309568,244706,310666,600219,1871,10039,213,43,195,170495,140171,302526,106353,7725,167884,15839,183723,4738,24604,448,3908,64683,19031,8487,5585,820,128850,5901,102.0,40.0
Orissa,Mayurbhanj,21.897621545157754,86.4030408052231,376,2519738,1256213,1263525,1369397,1223534,2113079,33706,15008,661,162,109,697782,525752,1296204,568755,113808,689110,64479,753589,29031,140189,2950,17999,390037,214921,92060,72847,6279,559038,17104,101.0,54.0
Orissa,Nayagarh,20.192895622119817,85.05614700460825,385,962789,502636,460153,688362,343633,955754,5278,383,107,33,24,284591,59042,619156,120129,17557,261646,26688,288334,11159,124984,1163,8278,227102,90089,36951,33148,2270,219723,7144,92.0,71.0
Orissa,Nuapada,20.471309512195116,82.59152536585364,394,610382,301962,308420,299383,305438,601092,4952,1778,724,76,905,168155,137283,304944,149834,8641,197258,11869,209127,6414,43976,757,4221,114394,51886,19577,10131,1346,152129,3851,102.0,49.0
Orissa,Puri,19.83509174603177,85.86698989898981,387,1698730,865380,833350,1291939,621676,1644905,46094,4239,193,243,94,498461,123215,1077054,163942,25115,402014,72210,474224,33331,201605,3416,16006,413605,179086,84374,87000,4693,343935,17603,96.0,76.0
Orissa,Rayagada,19.292840020060204,83.45860120361095,396,967911,471960,495951,407735,467122,874445,4607,84916,219,249,123,258032,209090,500789,248175,9959,237343,49205,286548,24924,61543,1553,9166,97387,46001,21439,17681,2090,201492,17683,105.0,42.0
Orissa,Sambalpur,21.515752380952385,84.34958483245157,372,1041099,526877,514222,703691,505840,964188,20120,50637,2506,310,86,313161,192679,535259,160798,59288,220697,94798,315495,33612,126498,5231,14521,185289,108455,50705,45828,5946,212516,27844,98.0,68.0
Orissa,Sundargarh,22.06354819277107,84.50524819277099,374,2093437,1061147,1032290,1342322,873227,1532352,71391,385011,5713,710,721,584687,288540,1220210,253327,26970,387911,230151,618062,77581,223537,12787,35024,350349,243386,120373,94710,14641,356607,73640,97.0,64.0
Puducherry,Karaikal,10.876161726078813,79.82369793621002,637,200222,97809,102413,154916,68301,152638,28835,18391,46,63,54,53139,15162,131921,13077,1327,35618,33715,69333,28366,47880,1868,4870,32899,29456,15930,18998,2550,33788,12831,105.0,77.0
Puducherry,Mahe,12.006420793787758,75.28275021570326,636,41816,19143,22673,36470,11802,27940,12856,958,3,21,14,9093,2709,30014,82,69,0,12110,12110,3632,7150,574,1484,6043,8773,5711,4475,858,6569,494,118.0,87.0
Puducherry,Yanam,16.707695652173904,82.26187304347832,634,55626,27301,28325,39274,16760,53537,1191,873,3,1,4,14047,2713,38866,3324,146,0,15519,15519,10399,12859,207,597,10954,8044,4101,3836,226,6947,5816,104.0,71.0
Punjab,Amritsar,31.548679820627772,74.79883856502238,49,2490656,1318408,1172248,1684770,917856,690939,12502,54344,1716935,876,3152,735195,182661,1572800,121599,41642,275477,385476,660953,279993,461231,29961,63864,313874,328229,203656,142399,56185,430041,41576,89.0,68.0
Punjab,Bathinda,30.190524611973352,75.05685898004438,46,1388525,743197,645328,844868,549986,380569,16299,2474,984286,246,1266,432988,116998,838539,128382,14938,218159,137563,355722,118427,255650,11284,32253,182796,163928,96329,70240,36173,235988,21224,87.0,61.0
Punjab,Faridkot,30.591187250996025,74.79751553784862,45,617508,326671,290837,381285,221555,141363,3125,1227,469789,155,1109,185049,36506,395953,54058,8225,99946,58917,158863,62103,113549,4348,12276,89433,75419,48360,29838,15528,109071,6142,89.0,62.0
Punjab,Fatehgarh Sahib,30.64290947368421,76.36208394736842,40,600163,320795,279368,426033,214783,152851,16808,1698,427521,48,178,182777,32006,385380,21389,8048,117559,57337,174896,64037,113683,5138,14294,102257,95073,59555,34990,18239,101426,11510,87.0,71.0
Punjab,Firozpur,30.63407535211269,74.40245732394365,43,2029074,1071637,957437,1227511,756695,906408,6844,19358,1090815,454,1143,596406,160289,1272379,227971,14679,348522,153868,502390,141899,349662,10042,31070,306838,221806,147698,82448,37105,344538,17695,89.0,60.0
Punjab,Gurdaspur,32.04283371212125,75.3204064393939,35,2298323,1212617,1085706,1634719,757138,1074332,27667,176587,1002874,405,580,637652,119486,1541185,100684,30903,420860,185488,606348,244468,411216,14428,38445,315156,372317,243539,104345,32484,409745,14231,90.0,71.0
Punjab,Hoshiarpur,31.55157169811319,75.8469857442349,38,1586625,809057,777568,1199699,499822,1000743,23089,14968,538208,3476,2034,412506,87316,1086803,74362,15990,422673,128592,551265,201675,319930,13747,34328,256127,301435,176013,93618,33720,303081,17651,96.0,76.0
Punjab,Jalandhar,31.250336907216507,75.54400350515463,37,2193590,1145211,1048379,1622537,774472,1394329,30233,26016,718363,11385,4011,639484,134988,1419118,66664,29762,330339,377791,708130,299449,446200,39082,79134,333736,339758,216646,162965,72374,378807,61615,92.0,74.0
Punjab,Kapurthala,31.336592638036837,75.47641165644177,36,815168,426311,388857,576567,284165,336124,10190,5445,453692,6662,553,235562,48603,531003,42387,9861,165433,95770,261203,110555,161206,9732,23145,127031,128828,77442,48221,23561,141816,18924,91.0,71.0
Punjab,Ludhiana,30.76596397379912,75.83110851528383,41,3498739,1867816,1630923,2560225,1284822,1502403,77713,16517,1863408,2007,19620,1053600,231222,2213917,98646,71667,395032,641789,1036821,488757,703624,58589,123400,488129,527568,318876,272280,120172,570487,127020,87.0,73.0
Punjab,Mansa,29.919547714285724,75.4304922857143,47,769751,408732,361019,423560,328512,156539,10375,917,598443,123,1577,230739,97773,441239,90367,13442,145603,50786,196389,39414,140099,2673,10085,106162,85953,48663,27461,12805,140422,4905,88.0,55.0
Punjab,Moga,30.756540067340065,75.1600845117845,42,995746,525920,469826,627889,359172,158414,9388,3277,818921,178,436,292379,66793,636574,82397,18098,214295,74144,288439,89445,183396,7897,21662,158812,128693,85642,37417,26253,178205,9104,89.0,63.0
Punjab,Muktsar,30.31243303303303,74.5518747747748,44,901896,475622,426274,524848,335326,254920,4333,1681,638625,240,744,272699,62627,566570,111014,5187,149507,74650,224157,76441,166585,4571,14077,137470,104682,62612,36905,23185,159581,9169,90.0,58.0
Punjab,Patiala,30.214540380693364,76.27505893949697,48,1895686,1002522,893164,1266791,660267,783306,40043,5683,1059944,245,1914,549661,110606,1235419,89123,23647,299279,218090,517369,209192,352929,24274,55105,283837,256826,157435,141947,57008,325608,28546,89.0,67.0
Punjab,Rupnagar,30.910937330754347,76.53743500967126,51,684627,357485,327142,502731,233676,304481,14492,2094,361045,118,653,186910,46766,450951,21520,12321,148162,60537,208699,67749,129123,6600,17542,107715,116836,68794,38823,17248,114943,14317,92.0,73.0
Punjab,Sangrur,30.185045204336895,75.89437014178496,53,1655169,878029,777140,1002077,568758,389410,179116,2406,1077438,268,3222,485129,83629,1086411,91799,18578,292156,156788,448944,135280,305557,10736,30955,250833,220210,130155,73636,35264,294479,15033,89.0,61.0
Rajasthan,Ajmer,26.199300378787903,74.6990419191919,119,2583052,1324085,1258967,1526673,1053722,2201663,314159,10605,6799,417,45614,686149,367573,1529330,145523,35602,409335,274919,684254,171799,393498,13499,41732,394576,200191,130608,172683,24509,437083,40066,95.0,59.0
Rajasthan,Alwar,27.55271738035265,76.65359630562563,104,3674179,1939026,1735153,2182476,1708542,3039279,547335,2696,64532,4384,13221,994171,714371,1965637,216772,34562,782294,212967,995261,123478,485723,9750,45770,492981,324050,230415,222622,30207,595153,27599,89.0,59.0
Rajasthan,Banswara,23.453642032967014,74.44246868131869,125,1797485,907754,889731,829343,916574,1701234,48834,22250,427,138,22613,482236,434338,880911,199370,19818,390437,39407,429844,34189,120603,2324,15062,190259,75011,50438,47094,5287,352341,10180,98.0,46.0
Rajasthan,Baran,24.98023243243244,76.86210651828291,128,1222755,633945,588810,693307,552583,1133349,79984,1432,3066,84,2795,329754,222829,670172,185037,15258,249184,69804,318988,32685,161310,1363,9491,194024,76209,46847,49939,5741,223828,13069,93.0,57.0
Rajasthan,Barmer,25.77070908045978,71.50297126436782,115,2603751,1369022,1234729,1188322,1202482,2244882,321192,1157,450,157,34010,696240,506242,1401269,132696,30565,542825,55980,598805,39580,126494,2766,37730,352636,101291,52272,39533,27009,436661,8087,90.0,46.0
Rajasthan,Bharatpur,27.32411858037578,77.21752077244258,105,2548462,1355726,1192736,1480869,1071154,2143046,371286,1576,23456,899,5758,647198,423956,1477308,238894,25068,479437,129697,609134,61113,288723,4179,26106,330336,211938,147520,132571,10349,411145,8732,88.0,58.0
Rajasthan,Bhilwara,25.45119767759564,74.63947595628417,122,2408523,1220736,1187787,1256126,1148165,2224839,142427,1978,1468,183,35149,674589,473576,1260358,163052,30149,530015,145865,675880,93768,373644,6207,24014,338296,141250,92785,106667,17508,450389,37857,97.0,52.0
Rajasthan,Bikaner,28.12489068322981,73.26943322981371,101,2363937,1240801,1123136,1278801,986208,2073356,235741,1901,20072,285,30850,640572,345636,1377729,103833,26244,335754,196179,531933,108812,220793,7607,29531,333211,143669,80296,101714,17113,349733,17010,91.0,54.0
Rajasthan,Bundi,25.48580716049379,75.79984074074079,121,1110906,577160,533746,585044,526091,1017688,66609,682,11059,144,13455,314806,211285,584815,111388,11172,239836,63452,303288,33406,136969,1392,7705,159218,63248,41227,41052,5787,202701,13298,92.0,53.0
Rajasthan,Chittaurgarh,24.631623761665463,74.80010997846382,126,1544338,783171,761167,821825,802755,1413163,97855,1274,1515,252,25843,456632,346123,741583,123469,15435,366780,88873,455653,59190,268172,4941,16560,225700,90889,58129,67155,11261,293931,27803,97.0,53.0
Rajasthan,Churu,28.29330375536484,74.65846427038629,102,2039547,1051446,988101,1149269,902829,1777879,249736,958,402,188,7104,541404,361425,1136718,87983,16594,344897,148996,493893,74197,231696,2577,15259,302022,161520,100677,77282,9938,338115,6521,94.0,56.0
Rajasthan,Dausa,26.91234817629181,76.57342097264443,109,1634409,857787,776622,938051,684495,1582335,45488,439,296,94,3737,398151,286344,949914,76277,17185,361084,59610,420694,35600,195277,1719,14539,235474,135234,92559,90833,6664,284497,4381,91.0,57.0
Rajasthan,Dhaulpur,26.72397054945053,77.74476219780222,106,1206516,653647,552869,683098,523212,1127520,72258,688,1356,92,2739,339110,184102,683304,74342,12721,214670,58626,273296,24561,96086,1330,9504,172914,77360,45590,37856,3614,195242,4973,85.0,57.0
Rajasthan,Dungarpur,23.75104807692308,73.84765641025645,124,1388552,696532,692020,681591,641515,1340065,28662,830,240,226,16141,346624,294891,747037,184330,12514,322816,31547,354363,26351,141275,1477,11742,175059,60656,42887,39312,4385,273174,6186,99.0,49.0
